{
"type": "FeatureCollection",
"name": "Villages_All",
"crs": { "type": "name", "properties": { "name": "urn:ogc:def:crs:OGC:1.3:CRS84" } },
"features": [
{ "type": "Feature", "properties": { "OBJECTID": 1, "VILLAGEID": 110107, "NAME": "Xia gao", "HANZI": "下高", "TOWNSHIP": "Hanjiang", "All_Villages_adjusted_with_VillageID_VillageID": null, "Village_ID_Information_OID": null, "Village_ID_Information_COUNTY": null, "Village_ID_Information_VILLAGE_ID": null, "Village_ID_Information_PINGYING": null }, "geometry": { "type": "Point", "coordinates": [ 119.0811, 25.4689 ] } },
{ "type": "Feature", "properties": { "OBJECTID": 2, "VILLAGEID": 110106, "NAME": "Xia cheng", "HANZI": "下澄", "TOWNSHIP": "Hanjiang", "All_Villages_adjusted_with_VillageID_VillageID": null, "Village_ID_Information_OID": null, "Village_ID_Information_COUNTY": null, "Village_ID_Information_VILLAGE_ID": null, "Village_ID_Information_PINGYING": null }, "geometry": { "type": "Point", "coordinates": [ 119.0769, 25.4691 ] } },
{ "type": "Feature", "properties": { "OBJECTID": 3, "VILLAGEID": 110059, "NAME": "Zhou dun", "HANZI": "周墩", "TOWNSHIP": "Hanjiang", "All_Villages_adjusted_with_VillageID_VillageID": null, "Village_ID_Information_OID": null, "Village_ID_Information_COUNTY": null, "Village_ID_Information_VILLAGE_ID": null, "Village_ID_Information_PINGYING": null }, "geometry": { "type": "Point", "coordinates": [ 119.0804, 25.457 ] } },
{ "type": "Feature", "properties": { "OBJECTID": 4, "VILLAGEID": 110063, "NAME": "Xia jiang", "HANZI": "下江", "TOWNSHIP": "Hanjiang", "All_Villages_adjusted_with_VillageID_VillageID": null, "Village_ID_Information_OID": null, "Village_ID_Information_COUNTY": null, "Village_ID_Information_VILLAGE_ID": null, "Village_ID_Information_PINGYING": null }, "geometry": { "type": "Point", "coordinates": [ 119.08, 25.4644 ] } },
{ "type": "Feature", "properties": { "OBJECTID": 5, "VILLAGEID": 110500, "NAME": "An qian", "HANZI": "安前", "TOWNSHIP": "Hanjiang", "All_Villages_adjusted_with_VillageID_VillageID": null, "Village_ID_Information_OID": null, "Village_ID_Information_COUNTY": null, "Village_ID_Information_VILLAGE_ID": null, "Village_ID_Information_PINGYING": null }, "geometry": { "type": "Point", "coordinates": [ 119.132, 25.4582 ] } },
{ "type": "Feature", "properties": { "OBJECTID": 6, "VILLAGEID": 110109, "NAME": "Ao li", "HANZI": "澳里", "TOWNSHIP": "Hanjiang", "All_Villages_adjusted_with_VillageID_VillageID": null, "Village_ID_Information_OID": null, "Village_ID_Information_COUNTY": null, "Village_ID_Information_VILLAGE_ID": null, "Village_ID_Information_PINGYING": null }, "geometry": { "type": "Point", "coordinates": [ 119.1489, 25.4546 ] } },
{ "type": "Feature", "properties": { "OBJECTID": 7, "VILLAGEID": 110145, "NAME": "Ban cheng", "HANZI": "半埕", "TOWNSHIP": "Hanjiang", "All_Villages_adjusted_with_VillageID_VillageID": null, "Village_ID_Information_OID": null, "Village_ID_Information_COUNTY": null, "Village_ID_Information_VILLAGE_ID": null, "Village_ID_Information_PINGYING": null }, "geometry": { "type": "Point", "coordinates": [ 119.1206, 25.4337 ] } },
{ "type": "Feature", "properties": { "OBJECTID": 8, "VILLAGEID": 110143, "NAME": "Gao mei", "HANZI": "高美", "TOWNSHIP": "Hanjiang", "All_Villages_adjusted_with_VillageID_VillageID": null, "Village_ID_Information_OID": null, "Village_ID_Information_COUNTY": null, "Village_ID_Information_VILLAGE_ID": null, "Village_ID_Information_PINGYING": null }, "geometry": { "type": "Point", "coordinates": [ 119.121, 25.4375 ] } },
{ "type": "Feature", "properties": { "OBJECTID": 9, "VILLAGEID": 110045, "NAME": "Shang gang", "HANZI": "上港", "TOWNSHIP": "Hanjiang", "All_Villages_adjusted_with_VillageID_VillageID": null, "Village_ID_Information_OID": null, "Village_ID_Information_COUNTY": null, "Village_ID_Information_VILLAGE_ID": null, "Village_ID_Information_PINGYING": null }, "geometry": { "type": "Point", "coordinates": [ 119.1154, 25.4385 ] } },
{ "type": "Feature", "properties": { "OBJECTID": 10, "VILLAGEID": 110150, "NAME": "Shang fang", "HANZI": "上方", "TOWNSHIP": "Hanjiang", "All_Villages_adjusted_with_VillageID_VillageID": null, "Village_ID_Information_OID": null, "Village_ID_Information_COUNTY": null, "Village_ID_Information_VILLAGE_ID": null, "Village_ID_Information_PINGYING": null }, "geometry": { "type": "Point", "coordinates": [ 119.1173, 25.4397 ] } },
{ "type": "Feature", "properties": { "OBJECTID": 11, "VILLAGEID": 110153, "NAME": "Bei gang", "HANZI": "北港", "TOWNSHIP": "Hanjiang", "All_Villages_adjusted_with_VillageID_VillageID": null, "Village_ID_Information_OID": null, "Village_ID_Information_COUNTY": null, "Village_ID_Information_VILLAGE_ID": null, "Village_ID_Information_PINGYING": null }, "geometry": { "type": "Point", "coordinates": [ 119.0784, 25.461 ] } },
{ "type": "Feature", "properties": { "OBJECTID": 12, "VILLAGEID": 110121, "NAME": "Cai dai Dong zhi", "HANZI": "蔡埭东至", "TOWNSHIP": "Hanjiang", "All_Villages_adjusted_with_VillageID_VillageID": null, "Village_ID_Information_OID": null, "Village_ID_Information_COUNTY": null, "Village_ID_Information_VILLAGE_ID": null, "Village_ID_Information_PINGYING": null }, "geometry": { "type": "Point", "coordinates": [ 119.0687, 25.4725 ] } },
{ "type": "Feature", "properties": { "OBJECTID": 13, "VILLAGEID": 110120, "NAME": "Cai dai xi zhi", "HANZI": "蔡埭西至", "TOWNSHIP": "Hanjiang", "All_Villages_adjusted_with_VillageID_VillageID": null, "Village_ID_Information_OID": null, "Village_ID_Information_COUNTY": null, "Village_ID_Information_VILLAGE_ID": null, "Village_ID_Information_PINGYING": null }, "geometry": { "type": "Point", "coordinates": [ 119.067, 25.4739 ] } },
{ "type": "Feature", "properties": { "OBJECTID": 14, "VILLAGEID": 110164, "NAME": "Cang ran", "HANZI": "苍然", "TOWNSHIP": "Hanjiang", "All_Villages_adjusted_with_VillageID_VillageID": null, "Village_ID_Information_OID": null, "Village_ID_Information_COUNTY": null, "Village_ID_Information_VILLAGE_ID": null, "Village_ID_Information_PINGYING": null }, "geometry": { "type": "Point", "coordinates": [ 119.1081, 25.4532 ] } },
{ "type": "Feature", "properties": { "OBJECTID": 15, "VILLAGEID": 110087, "NAME": "Cang lin", "HANZI": "苍林", "TOWNSHIP": "Hanjiang", "All_Villages_adjusted_with_VillageID_VillageID": null, "Village_ID_Information_OID": null, "Village_ID_Information_COUNTY": null, "Village_ID_Information_VILLAGE_ID": null, "Village_ID_Information_PINGYING": null }, "geometry": { "type": "Point", "coordinates": [ 119.1006, 25.4653 ] } },
{ "type": "Feature", "properties": { "OBJECTID": 16, "VILLAGEID": 110032, "NAME": "Hou dun", "HANZI": "后墩", "TOWNSHIP": "Hanjiang", "All_Villages_adjusted_with_VillageID_VillageID": null, "Village_ID_Information_OID": null, "Village_ID_Information_COUNTY": null, "Village_ID_Information_VILLAGE_ID": null, "Village_ID_Information_PINGYING": null }, "geometry": { "type": "Point", "coordinates": [ 119.0705, 25.4436 ] } },
{ "type": "Feature", "properties": { "OBJECTID": 17, "VILLAGEID": 110014, "NAME": "Cheng feng", "HANZI": "澄峰", "TOWNSHIP": "Hanjiang", "All_Villages_adjusted_with_VillageID_VillageID": null, "Village_ID_Information_OID": null, "Village_ID_Information_COUNTY": null, "Village_ID_Information_VILLAGE_ID": null, "Village_ID_Information_PINGYING": null }, "geometry": { "type": "Point", "coordinates": [ 119.0997, 25.4783 ] } },
{ "type": "Feature", "properties": { "OBJECTID": 18, "VILLAGEID": 110137, "NAME": "Da du xia", "HANZI": "大度下", "TOWNSHIP": "Hanjiang", "All_Villages_adjusted_with_VillageID_VillageID": null, "Village_ID_Information_OID": null, "Village_ID_Information_COUNTY": null, "Village_ID_Information_VILLAGE_ID": null, "Village_ID_Information_PINGYING": null }, "geometry": { "type": "Point", "coordinates": [ 119.0757, 25.4545 ] } },
{ "type": "Feature", "properties": { "OBJECTID": 19, "VILLAGEID": 110056, "NAME": "Dai cheng", "HANZI": "岱埕", "TOWNSHIP": "Hanjiang", "All_Villages_adjusted_with_VillageID_VillageID": null, "Village_ID_Information_OID": null, "Village_ID_Information_COUNTY": null, "Village_ID_Information_VILLAGE_ID": null, "Village_ID_Information_PINGYING": null }, "geometry": { "type": "Point", "coordinates": [ 119.0991, 25.4471 ] } },
{ "type": "Feature", "properties": { "OBJECTID": 20, "VILLAGEID": 110069, "NAME": "Dai li", "HANZI": "埭里", "TOWNSHIP": "Hanjiang", "All_Villages_adjusted_with_VillageID_VillageID": null, "Village_ID_Information_OID": null, "Village_ID_Information_COUNTY": null, "Village_ID_Information_VILLAGE_ID": null, "Village_ID_Information_PINGYING": null }, "geometry": { "type": "Point", "coordinates": [ 119.0644, 25.4719 ] } },
{ "type": "Feature", "properties": { "OBJECTID": 21, "VILLAGEID": 110070, "NAME": "Qian huang", "HANZI": "前黄", "TOWNSHIP": "Hanjiang", "All_Villages_adjusted_with_VillageID_VillageID": null, "Village_ID_Information_OID": null, "Village_ID_Information_COUNTY": null, "Village_ID_Information_VILLAGE_ID": null, "Village_ID_Information_PINGYING": null }, "geometry": { "type": "Point", "coordinates": [ 119.0644, 25.4715 ] } },
{ "type": "Feature", "properties": { "OBJECTID": 22, "VILLAGEID": 110067, "NAME": "Shang lin", "HANZI": "上林", "TOWNSHIP": "Hanjiang", "All_Villages_adjusted_with_VillageID_VillageID": null, "Village_ID_Information_OID": null, "Village_ID_Information_COUNTY": null, "Village_ID_Information_VILLAGE_ID": null, "Village_ID_Information_PINGYING": null }, "geometry": { "type": "Point", "coordinates": [ 119.0701, 25.4776 ] } },
{ "type": "Feature", "properties": { "OBJECTID": 23, "VILLAGEID": 110068, "NAME": "Xia dun", "HANZI": "下墩", "TOWNSHIP": "Hanjiang", "All_Villages_adjusted_with_VillageID_VillageID": null, "Village_ID_Information_OID": null, "Village_ID_Information_COUNTY": null, "Village_ID_Information_VILLAGE_ID": null, "Village_ID_Information_PINGYING": null }, "geometry": { "type": "Point", "coordinates": [ 119.0719, 25.4741 ] } },
{ "type": "Feature", "properties": { "OBJECTID": 24, "VILLAGEID": 110501, "NAME": "Dong dun", "HANZI": "东墩", "TOWNSHIP": "Hanjiang", "All_Villages_adjusted_with_VillageID_VillageID": null, "Village_ID_Information_OID": null, "Village_ID_Information_COUNTY": null, "Village_ID_Information_VILLAGE_ID": null, "Village_ID_Information_PINGYING": null }, "geometry": { "type": "Point", "coordinates": [ 119.0997, 25.437 ] } },
{ "type": "Feature", "properties": { "OBJECTID": 25, "VILLAGEID": 110147, "NAME": "Dong fang", "HANZI": "东坊", "TOWNSHIP": "Hanjiang", "All_Villages_adjusted_with_VillageID_VillageID": null, "Village_ID_Information_OID": null, "Village_ID_Information_COUNTY": null, "Village_ID_Information_VILLAGE_ID": null, "Village_ID_Information_PINGYING": null }, "geometry": { "type": "Point", "coordinates": [ 119.1302, 25.4447 ] } },
{ "type": "Feature", "properties": { "OBJECTID": 26, "VILLAGEID": 110003, "NAME": "Dong zeng", "HANZI": "东曾", "TOWNSHIP": "Hanjiang", "All_Villages_adjusted_with_VillageID_VillageID": null, "Village_ID_Information_OID": null, "Village_ID_Information_COUNTY": null, "Village_ID_Information_VILLAGE_ID": null, "Village_ID_Information_PINGYING": null }, "geometry": { "type": "Point", "coordinates": [ 119.1283, 25.4381 ] } },
{ "type": "Feature", "properties": { "OBJECTID": 27, "VILLAGEID": 110002, "NAME": "Hou zeng", "HANZI": "后曾", "TOWNSHIP": "Hanjiang", "All_Villages_adjusted_with_VillageID_VillageID": null, "Village_ID_Information_OID": null, "Village_ID_Information_COUNTY": null, "Village_ID_Information_VILLAGE_ID": null, "Village_ID_Information_PINGYING": null }, "geometry": { "type": "Point", "coordinates": [ 119.1268, 25.4393 ] } },
{ "type": "Feature", "properties": { "OBJECTID": 28, "VILLAGEID": 110146, "NAME": "Ling dou", "HANZI": "岭兜", "TOWNSHIP": "Hanjiang", "All_Villages_adjusted_with_VillageID_VillageID": null, "Village_ID_Information_OID": null, "Village_ID_Information_COUNTY": null, "Village_ID_Information_VILLAGE_ID": null, "Village_ID_Information_PINGYING": null }, "geometry": { "type": "Point", "coordinates": [ 119.1358, 25.4474 ] } },
{ "type": "Feature", "properties": { "OBJECTID": 29, "VILLAGEID": 110036, "NAME": "Shang mei", "HANZI": "上梅", "TOWNSHIP": "Hanjiang", "All_Villages_adjusted_with_VillageID_VillageID": null, "Village_ID_Information_OID": null, "Village_ID_Information_COUNTY": null, "Village_ID_Information_VILLAGE_ID": null, "Village_ID_Information_PINGYING": null }, "geometry": { "type": "Point", "coordinates": [ 119.1294, 25.4409 ] } },
{ "type": "Feature", "properties": { "OBJECTID": 30, "VILLAGEID": 110037, "NAME": "Xi lin", "HANZI": "西林", "TOWNSHIP": "Hanjiang", "All_Villages_adjusted_with_VillageID_VillageID": null, "Village_ID_Information_OID": null, "Village_ID_Information_COUNTY": null, "Village_ID_Information_VILLAGE_ID": null, "Village_ID_Information_PINGYING": null }, "geometry": { "type": "Point", "coordinates": [ 119.1267, 25.4412 ] } },
{ "type": "Feature", "properties": { "OBJECTID": 31, "VILLAGEID": 110004, "NAME": "Xin po tou", "HANZI": "新坡头", "TOWNSHIP": "Hanjiang", "All_Villages_adjusted_with_VillageID_VillageID": null, "Village_ID_Information_OID": null, "Village_ID_Information_COUNTY": null, "Village_ID_Information_VILLAGE_ID": null, "Village_ID_Information_PINGYING": null }, "geometry": { "type": "Point", "coordinates": [ 119.1372, 25.4528 ] } },
{ "type": "Feature", "properties": { "OBJECTID": 32, "VILLAGEID": 110016, "NAME": "Dong ting", "HANZI": "东亭", "TOWNSHIP": "Hanjiang", "All_Villages_adjusted_with_VillageID_VillageID": null, "Village_ID_Information_OID": null, "Village_ID_Information_COUNTY": null, "Village_ID_Information_VILLAGE_ID": null, "Village_ID_Information_PINGYING": null }, "geometry": { "type": "Point", "coordinates": [ 119.1076, 25.4366 ] } },
{ "type": "Feature", "properties": { "OBJECTID": 33, "VILLAGEID": 110049, "NAME": "Dong ting", "HANZI": "洞庭", "TOWNSHIP": "Hanjiang", "All_Villages_adjusted_with_VillageID_VillageID": null, "Village_ID_Information_OID": null, "Village_ID_Information_COUNTY": null, "Village_ID_Information_VILLAGE_ID": null, "Village_ID_Information_PINGYING": null }, "geometry": { "type": "Point", "coordinates": [ 119.1358, 25.4761 ] } },
{ "type": "Feature", "properties": { "OBJECTID": 34, "VILLAGEID": 110008, "NAME": "Dong lin", "HANZI": "东林", "TOWNSHIP": "Hanjiang", "All_Villages_adjusted_with_VillageID_VillageID": null, "Village_ID_Information_OID": null, "Village_ID_Information_COUNTY": null, "Village_ID_Information_VILLAGE_ID": null, "Village_ID_Information_PINGYING": null }, "geometry": { "type": "Point", "coordinates": [ 119.1033, 25.4933 ] } },
{ "type": "Feature", "properties": { "OBJECTID": 35, "VILLAGEID": 110018, "NAME": "Du bin", "HANZI": "都邠", "TOWNSHIP": "Hanjiang", "All_Villages_adjusted_with_VillageID_VillageID": null, "Village_ID_Information_OID": null, "Village_ID_Information_COUNTY": null, "Village_ID_Information_VILLAGE_ID": null, "Village_ID_Information_PINGYING": null }, "geometry": { "type": "Point", "coordinates": [ 119.0867, 25.4747 ] } },
{ "type": "Feature", "properties": { "OBJECTID": 36, "VILLAGEID": 110052, "NAME": "Du xia", "HANZI": "度下", "TOWNSHIP": "Hanjiang", "All_Villages_adjusted_with_VillageID_VillageID": null, "Village_ID_Information_OID": null, "Village_ID_Information_COUNTY": null, "Village_ID_Information_VILLAGE_ID": null, "Village_ID_Information_PINGYING": null }, "geometry": { "type": "Point", "coordinates": [ 119.0881, 25.4467 ] } },
{ "type": "Feature", "properties": { "OBJECTID": 37, "VILLAGEID": 110105, "NAME": "Duo qian", "HANZI": "哆前", "TOWNSHIP": "Hanjiang", "All_Villages_adjusted_with_VillageID_VillageID": null, "Village_ID_Information_OID": null, "Village_ID_Information_COUNTY": null, "Village_ID_Information_VILLAGE_ID": null, "Village_ID_Information_PINGYING": null }, "geometry": { "type": "Point", "coordinates": [ 119.125, 25.4352 ] } },
{ "type": "Feature", "properties": { "OBJECTID": 38, "VILLAGEID": 110039, "NAME": "Duo zhong", "HANZI": "哆中", "TOWNSHIP": "Hanjiang", "All_Villages_adjusted_with_VillageID_VillageID": null, "Village_ID_Information_OID": null, "Village_ID_Information_COUNTY": null, "Village_ID_Information_VILLAGE_ID": null, "Village_ID_Information_PINGYING": null }, "geometry": { "type": "Point", "coordinates": [ 119.1277, 25.4357 ] } },
{ "type": "Feature", "properties": { "OBJECTID": 39, "VILLAGEID": 110038, "NAME": "Duo hou", "HANZI": "哆后", "TOWNSHIP": "Hanjiang", "All_Villages_adjusted_with_VillageID_VillageID": null, "Village_ID_Information_OID": null, "Village_ID_Information_COUNTY": null, "Village_ID_Information_VILLAGE_ID": null, "Village_ID_Information_PINGYING": null }, "geometry": { "type": "Point", "coordinates": [ 119.1276, 25.4337 ] } },
{ "type": "Feature", "properties": { "OBJECTID": 40, "VILLAGEID": 110502, "NAME": "Er luo", "HANZI": "二落", "TOWNSHIP": "Hanjiang", "All_Villages_adjusted_with_VillageID_VillageID": null, "Village_ID_Information_OID": null, "Village_ID_Information_COUNTY": null, "Village_ID_Information_VILLAGE_ID": null, "Village_ID_Information_PINGYING": null }, "geometry": { "type": "Point", "coordinates": [ 119.1199, 25.455 ] } },
{ "type": "Feature", "properties": { "OBJECTID": 41, "VILLAGEID": 110503, "NAME": "Gang tou", "HANZI": "港头", "TOWNSHIP": "Hanjiang", "All_Villages_adjusted_with_VillageID_VillageID": null, "Village_ID_Information_OID": null, "Village_ID_Information_COUNTY": null, "Village_ID_Information_VILLAGE_ID": null, "Village_ID_Information_PINGYING": null }, "geometry": { "type": "Point", "coordinates": [ 119.0956, 25.4527 ] } },
{ "type": "Feature", "properties": { "OBJECTID": 42, "VILLAGEID": 110504, "NAME": "Ge gou", "HANZI": "隔沟", "TOWNSHIP": "Hanjiang", "All_Villages_adjusted_with_VillageID_VillageID": null, "Village_ID_Information_OID": null, "Village_ID_Information_COUNTY": null, "Village_ID_Information_VILLAGE_ID": null, "Village_ID_Information_PINGYING": null }, "geometry": { "type": "Point", "coordinates": [ 119.0728, 25.4418 ] } },
{ "type": "Feature", "properties": { "OBJECTID": 43, "VILLAGEID": 110077, "NAME": "Han ba", "HANZI": "涵坝", "TOWNSHIP": "Hanjiang", "All_Villages_adjusted_with_VillageID_VillageID": null, "Village_ID_Information_OID": null, "Village_ID_Information_COUNTY": null, "Village_ID_Information_VILLAGE_ID": null, "Village_ID_Information_PINGYING": null }, "geometry": { "type": "Point", "coordinates": [ 119.0687, 25.4397 ] } },
{ "type": "Feature", "properties": { "OBJECTID": 44, "VILLAGEID": 110162, "NAME": "Hou du", "HANZI": "后度", "TOWNSHIP": "Hanjiang", "All_Villages_adjusted_with_VillageID_VillageID": null, "Village_ID_Information_OID": null, "Village_ID_Information_COUNTY": null, "Village_ID_Information_VILLAGE_ID": null, "Village_ID_Information_PINGYING": null }, "geometry": { "type": "Point", "coordinates": [ 119.1141, 25.4595 ] } },
{ "type": "Feature", "properties": { "OBJECTID": 45, "VILLAGEID": 110047, "NAME": "Hou gong", "HANZI": "后宫", "TOWNSHIP": "Hanjiang", "All_Villages_adjusted_with_VillageID_VillageID": null, "Village_ID_Information_OID": null, "Village_ID_Information_COUNTY": null, "Village_ID_Information_VILLAGE_ID": null, "Village_ID_Information_PINGYING": null }, "geometry": { "type": "Point", "coordinates": [ 119.1044, 25.4407 ] } },
{ "type": "Feature", "properties": { "OBJECTID": 46, "VILLAGEID": 110061, "NAME": "Hou guo", "HANZI": "后郭", "TOWNSHIP": "Hanjiang", "All_Villages_adjusted_with_VillageID_VillageID": null, "Village_ID_Information_OID": null, "Village_ID_Information_COUNTY": null, "Village_ID_Information_VILLAGE_ID": null, "Village_ID_Information_PINGYING": null }, "geometry": { "type": "Point", "coordinates": [ 119.1529, 25.4673 ] } },
{ "type": "Feature", "properties": { "OBJECTID": 47, "VILLAGEID": 110108, "NAME": "Hou huang", "HANZI": "后黄", "TOWNSHIP": "Hanjiang", "All_Villages_adjusted_with_VillageID_VillageID": null, "Village_ID_Information_OID": null, "Village_ID_Information_COUNTY": null, "Village_ID_Information_VILLAGE_ID": null, "Village_ID_Information_PINGYING": null }, "geometry": { "type": "Point", "coordinates": [ 119.1555, 25.4566 ] } },
{ "type": "Feature", "properties": { "OBJECTID": 48, "VILLAGEID": 110048, "NAME": "Hou tou", "HANZI": "后头", "TOWNSHIP": "Hanjiang", "All_Villages_adjusted_with_VillageID_VillageID": null, "Village_ID_Information_OID": null, "Village_ID_Information_COUNTY": null, "Village_ID_Information_VILLAGE_ID": null, "Village_ID_Information_PINGYING": null }, "geometry": { "type": "Point", "coordinates": [ 119.1021, 25.4393 ] } },
{ "type": "Feature", "properties": { "OBJECTID": 49, "VILLAGEID": 110110, "NAME": "Xia she", "HANZI": "下社", "TOWNSHIP": "Hanjiang", "All_Villages_adjusted_with_VillageID_VillageID": null, "Village_ID_Information_OID": null, "Village_ID_Information_COUNTY": null, "Village_ID_Information_VILLAGE_ID": null, "Village_ID_Information_PINGYING": null }, "geometry": { "type": "Point", "coordinates": [ 119.1519, 25.4564 ] } },
{ "type": "Feature", "properties": { "OBJECTID": 50, "VILLAGEID": 110012, "NAME": "Xia xiao", "HANZI": "霞肖", "TOWNSHIP": "Hanjiang", "All_Villages_adjusted_with_VillageID_VillageID": null, "Village_ID_Information_OID": null, "Village_ID_Information_COUNTY": null, "Village_ID_Information_VILLAGE_ID": null, "Village_ID_Information_PINGYING": null }, "geometry": { "type": "Point", "coordinates": [ 119.1064, 25.4746 ] } },
{ "type": "Feature", "properties": { "OBJECTID": 51, "VILLAGEID": 110170, "NAME": "Xia xu", "HANZI": "霞徐", "TOWNSHIP": "Hanjiang", "All_Villages_adjusted_with_VillageID_VillageID": null, "Village_ID_Information_OID": null, "Village_ID_Information_COUNTY": null, "Village_ID_Information_VILLAGE_ID": null, "Village_ID_Information_PINGYING": null }, "geometry": { "type": "Point", "coordinates": [ 119.1049, 25.4515 ] } },
{ "type": "Feature", "properties": { "OBJECTID": 52, "VILLAGEID": 110128, "NAME": " Xia yang", "HANZI": "下洋", "TOWNSHIP": "Hanjiang", "All_Villages_adjusted_with_VillageID_VillageID": null, "Village_ID_Information_OID": null, "Village_ID_Information_COUNTY": null, "Village_ID_Information_VILLAGE_ID": null, "Village_ID_Information_PINGYING": null }, "geometry": { "type": "Point", "coordinates": [ 119.0744, 25.4529 ] } },
{ "type": "Feature", "properties": { "OBJECTID": 53, "VILLAGEID": 110138, "NAME": "Xin gang", "HANZI": "新港", "TOWNSHIP": "Hanjiang", "All_Villages_adjusted_with_VillageID_VillageID": null, "Village_ID_Information_OID": null, "Village_ID_Information_COUNTY": null, "Village_ID_Information_VILLAGE_ID": null, "Village_ID_Information_PINGYING": null }, "geometry": { "type": "Point", "coordinates": [ 119.0864, 25.4593 ] } },
{ "type": "Feature", "properties": { "OBJECTID": 54, "VILLAGEID": 110019, "NAME": "Xin po", "HANZI": "新坡", "TOWNSHIP": "Hanjiang", "All_Villages_adjusted_with_VillageID_VillageID": null, "Village_ID_Information_OID": null, "Village_ID_Information_COUNTY": null, "Village_ID_Information_VILLAGE_ID": null, "Village_ID_Information_PINGYING": null }, "geometry": { "type": "Point", "coordinates": [ 119.129, 25.4767 ] } },
{ "type": "Feature", "properties": { "OBJECTID": 55, "VILLAGEID": 110122, "NAME": "Xiu jiao", "HANZI": "秀郊", "TOWNSHIP": "Hanjiang", "All_Villages_adjusted_with_VillageID_VillageID": null, "Village_ID_Information_OID": null, "Village_ID_Information_COUNTY": null, "Village_ID_Information_VILLAGE_ID": null, "Village_ID_Information_PINGYING": null }, "geometry": { "type": "Point", "coordinates": [ 119.0885, 25.4716 ] } },
{ "type": "Feature", "properties": { "OBJECTID": 56, "VILLAGEID": 110042, "NAME": "Ya kou", "HANZI": "牙口", "TOWNSHIP": "Hanjiang", "All_Villages_adjusted_with_VillageID_VillageID": null, "Village_ID_Information_OID": null, "Village_ID_Information_COUNTY": null, "Village_ID_Information_VILLAGE_ID": null, "Village_ID_Information_PINGYING": null }, "geometry": { "type": "Point", "coordinates": [ 119.0824, 25.4374 ] } },
{ "type": "Feature", "properties": { "OBJECTID": 57, "VILLAGEID": 110041, "NAME": "Lan tian", "HANZI": "蓝田", "TOWNSHIP": "Hanjiang", "All_Villages_adjusted_with_VillageID_VillageID": null, "Village_ID_Information_OID": null, "Village_ID_Information_COUNTY": null, "Village_ID_Information_VILLAGE_ID": null, "Village_ID_Information_PINGYING": null }, "geometry": { "type": "Point", "coordinates": [ 119.0838, 25.4431 ] } },
{ "type": "Feature", "properties": { "OBJECTID": 58, "VILLAGEID": 110043, "NAME": "Yang chi", "HANZI": "洋池", "TOWNSHIP": "Hanjiang", "All_Villages_adjusted_with_VillageID_VillageID": null, "Village_ID_Information_OID": null, "Village_ID_Information_COUNTY": null, "Village_ID_Information_VILLAGE_ID": null, "Village_ID_Information_PINGYING": null }, "geometry": { "type": "Point", "coordinates": [ 119.0778, 25.4452 ] } },
{ "type": "Feature", "properties": { "OBJECTID": 59, "VILLAGEID": 110534, "NAME": "Xi dun", "HANZI": "西墩", "TOWNSHIP": "Hanjiang", "All_Villages_adjusted_with_VillageID_VillageID": null, "Village_ID_Information_OID": null, "Village_ID_Information_COUNTY": null, "Village_ID_Information_VILLAGE_ID": null, "Village_ID_Information_PINGYING": null }, "geometry": { "type": "Point", "coordinates": [ 119.0973, 25.4375 ] } },
{ "type": "Feature", "properties": { "OBJECTID": 60, "VILLAGEID": 110044, "NAME": "Yang zhong", "HANZI": "洋忠", "TOWNSHIP": "Hanjiang", "All_Villages_adjusted_with_VillageID_VillageID": null, "Village_ID_Information_OID": null, "Village_ID_Information_COUNTY": null, "Village_ID_Information_VILLAGE_ID": null, "Village_ID_Information_PINGYING": null }, "geometry": { "type": "Point", "coordinates": [ 119.1215, 25.4476 ] } },
{ "type": "Feature", "properties": { "OBJECTID": 61, "VILLAGEID": 110010, "NAME": "Yu po", "HANZI": "喻坡", "TOWNSHIP": "Hanjiang", "All_Villages_adjusted_with_VillageID_VillageID": null, "Village_ID_Information_OID": null, "Village_ID_Information_COUNTY": null, "Village_ID_Information_VILLAGE_ID": null, "Village_ID_Information_PINGYING": null }, "geometry": { "type": "Point", "coordinates": [ 119.1074, 25.4868 ] } },
{ "type": "Feature", "properties": { "OBJECTID": 62, "VILLAGEID": 110112, "NAME": "Ding ke", "HANZI": "顶柯", "TOWNSHIP": "Hanjiang", "All_Villages_adjusted_with_VillageID_VillageID": null, "Village_ID_Information_OID": null, "Village_ID_Information_COUNTY": null, "Village_ID_Information_VILLAGE_ID": null, "Village_ID_Information_PINGYING": null }, "geometry": { "type": "Point", "coordinates": [ 119.1452, 25.4601 ] } },
{ "type": "Feature", "properties": { "OBJECTID": 63, "VILLAGEID": 110139, "NAME": "Hou zheng", "HANZI": "后郑", "TOWNSHIP": "Hanjiang", "All_Villages_adjusted_with_VillageID_VillageID": null, "Village_ID_Information_OID": null, "Village_ID_Information_COUNTY": null, "Village_ID_Information_VILLAGE_ID": null, "Village_ID_Information_PINGYING": null }, "geometry": { "type": "Point", "coordinates": [ 119.0858, 25.4582 ] } },
{ "type": "Feature", "properties": { "OBJECTID": 64, "VILLAGEID": 110084, "NAME": "Huang an", "HANZI": "黄安", "TOWNSHIP": "Hanjiang", "All_Villages_adjusted_with_VillageID_VillageID": null, "Village_ID_Information_OID": null, "Village_ID_Information_COUNTY": null, "Village_ID_Information_VILLAGE_ID": null, "Village_ID_Information_PINGYING": null }, "geometry": { "type": "Point", "coordinates": [ 119.1087, 25.469 ] } },
{ "type": "Feature", "properties": { "OBJECTID": 65, "VILLAGEID": 110024, "NAME": "Huang cuo", "HANZI": "黄厝", "TOWNSHIP": "Hanjiang", "All_Villages_adjusted_with_VillageID_VillageID": null, "Village_ID_Information_OID": null, "Village_ID_Information_COUNTY": null, "Village_ID_Information_VILLAGE_ID": null, "Village_ID_Information_PINGYING": null }, "geometry": { "type": "Point", "coordinates": [ 119.1315, 25.4773 ] } },
{ "type": "Feature", "properties": { "OBJECTID": 66, "VILLAGEID": 110053, "NAME": "Ji kui", "HANZI": "集奎", "TOWNSHIP": "Hanjiang", "All_Villages_adjusted_with_VillageID_VillageID": null, "Village_ID_Information_OID": null, "Village_ID_Information_COUNTY": null, "Village_ID_Information_VILLAGE_ID": null, "Village_ID_Information_PINGYING": null }, "geometry": { "type": "Point", "coordinates": [ 119.0981, 25.4506 ] } },
{ "type": "Feature", "properties": { "OBJECTID": 67, "VILLAGEID": 110154, "NAME": "Jia kou", "HANZI": "加口", "TOWNSHIP": "Hanjiang", "All_Villages_adjusted_with_VillageID_VillageID": null, "Village_ID_Information_OID": null, "Village_ID_Information_COUNTY": null, "Village_ID_Information_VILLAGE_ID": null, "Village_ID_Information_PINGYING": null }, "geometry": { "type": "Point", "coordinates": [ 119.0738, 25.4659 ] } },
{ "type": "Feature", "properties": { "OBJECTID": 68, "VILLAGEID": 110040, "NAME": "Jiang bian", "HANZI": "江边", "TOWNSHIP": "Hanjiang", "All_Villages_adjusted_with_VillageID_VillageID": null, "Village_ID_Information_OID": null, "Village_ID_Information_COUNTY": null, "Village_ID_Information_VILLAGE_ID": null, "Village_ID_Information_PINGYING": null }, "geometry": { "type": "Point", "coordinates": [ 119.0809, 25.4468 ] } },
{ "type": "Feature", "properties": { "OBJECTID": 69, "VILLAGEID": 110035, "NAME": "Jiang wei", "HANZI": "江尾", "TOWNSHIP": "Hanjiang", "All_Villages_adjusted_with_VillageID_VillageID": null, "Village_ID_Information_OID": null, "Village_ID_Information_COUNTY": null, "Village_ID_Information_VILLAGE_ID": null, "Village_ID_Information_PINGYING": null }, "geometry": { "type": "Point", "coordinates": [ 119.0814, 25.4444 ] } },
{ "type": "Feature", "properties": { "OBJECTID": 70, "VILLAGEID": 110071, "NAME": "Ke tang", "HANZI": "柯塘", "TOWNSHIP": "Hanjiang", "All_Villages_adjusted_with_VillageID_VillageID": null, "Village_ID_Information_OID": null, "Village_ID_Information_COUNTY": null, "Village_ID_Information_VILLAGE_ID": null, "Village_ID_Information_PINGYING": null }, "geometry": { "type": "Point", "coordinates": [ 119.065, 25.4591 ] } },
{ "type": "Feature", "properties": { "OBJECTID": 71, "VILLAGEID": 110505, "NAME": "Kun dun", "HANZI": "坤墩", "TOWNSHIP": "Hanjiang", "All_Villages_adjusted_with_VillageID_VillageID": null, "Village_ID_Information_OID": null, "Village_ID_Information_COUNTY": null, "Village_ID_Information_VILLAGE_ID": null, "Village_ID_Information_PINGYING": null }, "geometry": { "type": "Point", "coordinates": [ 119.0815, 25.4528 ] } },
{ "type": "Feature", "properties": { "OBJECTID": 72, "VILLAGEID": 110135, "NAME": "Li dun", "HANZI": "利墩", "TOWNSHIP": "Hanjiang", "All_Villages_adjusted_with_VillageID_VillageID": null, "Village_ID_Information_OID": null, "Village_ID_Information_COUNTY": null, "Village_ID_Information_VILLAGE_ID": null, "Village_ID_Information_PINGYING": null }, "geometry": { "type": "Point", "coordinates": [ 119.0851, 25.4528 ] } },
{ "type": "Feature", "properties": { "OBJECTID": 73, "VILLAGEID": 110506, "NAME": "Li jiao", "HANZI": "李角", "TOWNSHIP": "Hanjiang", "All_Villages_adjusted_with_VillageID_VillageID": null, "Village_ID_Information_OID": null, "Village_ID_Information_COUNTY": null, "Village_ID_Information_VILLAGE_ID": null, "Village_ID_Information_PINGYING": null }, "geometry": { "type": "Point", "coordinates": [ 119.0965, 25.438 ] } },
{ "type": "Feature", "properties": { "OBJECTID": 74, "VILLAGEID": 110079, "NAME": "Lin dun", "HANZI": "林墩", "TOWNSHIP": "Hanjiang", "All_Villages_adjusted_with_VillageID_VillageID": null, "Village_ID_Information_OID": null, "Village_ID_Information_COUNTY": null, "Village_ID_Information_VILLAGE_ID": null, "Village_ID_Information_PINGYING": null }, "geometry": { "type": "Point", "coordinates": [ 119.1055, 25.4496 ] } },
{ "type": "Feature", "properties": { "OBJECTID": 75, "VILLAGEID": 110025, "NAME": "Lin bing", "HANZI": "林柄", "TOWNSHIP": "Hanjiang", "All_Villages_adjusted_with_VillageID_VillageID": null, "Village_ID_Information_OID": null, "Village_ID_Information_COUNTY": null, "Village_ID_Information_VILLAGE_ID": null, "Village_ID_Information_PINGYING": null }, "geometry": { "type": "Point", "coordinates": [ 119.1349, 25.4687 ] } },
{ "type": "Feature", "properties": { "OBJECTID": 76, "VILLAGEID": 110030, "NAME": "Liu an", "HANZI": "刘安", "TOWNSHIP": "Hanjiang", "All_Villages_adjusted_with_VillageID_VillageID": null, "Village_ID_Information_OID": null, "Village_ID_Information_COUNTY": null, "Village_ID_Information_VILLAGE_ID": null, "Village_ID_Information_PINGYING": null }, "geometry": { "type": "Point", "coordinates": [ 119.1417, 25.4599 ] } },
{ "type": "Feature", "properties": { "OBJECTID": 77, "VILLAGEID": 110507, "NAME": "Lu dun", "HANZI": "卢墩", "TOWNSHIP": "Hanjiang", "All_Villages_adjusted_with_VillageID_VillageID": null, "Village_ID_Information_OID": null, "Village_ID_Information_COUNTY": null, "Village_ID_Information_VILLAGE_ID": null, "Village_ID_Information_PINGYING": null }, "geometry": { "type": "Point", "coordinates": [ 119.1063, 25.4469 ] } },
{ "type": "Feature", "properties": { "OBJECTID": 78, "VILLAGEID": 110508, "NAME": "Duo ban", "HANZI": "哆坂", "TOWNSHIP": "Hanjiang", "All_Villages_adjusted_with_VillageID_VillageID": null, "Village_ID_Information_OID": null, "Village_ID_Information_COUNTY": null, "Village_ID_Information_VILLAGE_ID": null, "Village_ID_Information_PINGYING": null }, "geometry": { "type": "Point", "coordinates": [ 119.1234, 25.4578 ] } },
{ "type": "Feature", "properties": { "OBJECTID": 79, "VILLAGEID": 110509, "NAME": "Feng xiu", "HANZI": "凤秀", "TOWNSHIP": "Hanjiang", "All_Villages_adjusted_with_VillageID_VillageID": null, "Village_ID_Information_OID": null, "Village_ID_Information_COUNTY": null, "Village_ID_Information_VILLAGE_ID": null, "Village_ID_Information_PINGYING": null }, "geometry": { "type": "Point", "coordinates": [ 119.1186, 25.4373 ] } },
{ "type": "Feature", "properties": { "OBJECTID": 80, "VILLAGEID": 110074, "NAME": "Hou ting", "HANZI": "后亭", "TOWNSHIP": "Hanjiang", "All_Villages_adjusted_with_VillageID_VillageID": null, "Village_ID_Information_OID": null, "Village_ID_Information_COUNTY": null, "Village_ID_Information_VILLAGE_ID": null, "Village_ID_Information_PINGYING": null }, "geometry": { "type": "Point", "coordinates": [ 119.0731, 25.4469 ] } },
{ "type": "Feature", "properties": { "OBJECTID": 81, "VILLAGEID": 110054, "NAME": "Hou ting", "HANZI": "后亭", "TOWNSHIP": "Hanjiang", "All_Villages_adjusted_with_VillageID_VillageID": null, "Village_ID_Information_OID": null, "Village_ID_Information_COUNTY": null, "Village_ID_Information_VILLAGE_ID": null, "Village_ID_Information_PINGYING": null }, "geometry": { "type": "Point", "coordinates": [ 119.0929, 25.445 ] } },
{ "type": "Feature", "properties": { "OBJECTID": 82, "VILLAGEID": 110163, "NAME": "Xia yang", "HANZI": "下洋", "TOWNSHIP": "Hanjiang", "All_Villages_adjusted_with_VillageID_VillageID": null, "Village_ID_Information_OID": null, "Village_ID_Information_COUNTY": null, "Village_ID_Information_VILLAGE_ID": null, "Village_ID_Information_PINGYING": null }, "geometry": { "type": "Point", "coordinates": [ 119.1053, 25.4583 ] } },
{ "type": "Feature", "properties": { "OBJECTID": 83, "VILLAGEID": 110511, "NAME": "Pu wei", "HANZI": "铺尾", "TOWNSHIP": "Hanjiang", "All_Villages_adjusted_with_VillageID_VillageID": null, "Village_ID_Information_OID": null, "Village_ID_Information_COUNTY": null, "Village_ID_Information_VILLAGE_ID": null, "Village_ID_Information_PINGYING": null }, "geometry": { "type": "Point", "coordinates": [ 119.1166, 25.4602 ] } },
{ "type": "Feature", "properties": { "OBJECTID": 84, "VILLAGEID": 110114, "NAME": "Bao wei", "HANZI": "保尾", "TOWNSHIP": "Hanjiang", "All_Villages_adjusted_with_VillageID_VillageID": null, "Village_ID_Information_OID": null, "Village_ID_Information_COUNTY": null, "Village_ID_Information_VILLAGE_ID": null, "Village_ID_Information_PINGYING": null }, "geometry": { "type": "Point", "coordinates": [ 119.1027, 25.4557 ] } },
{ "type": "Feature", "properties": { "OBJECTID": 85, "VILLAGEID": 110517, "NAME": "Xi lin", "HANZI": "西林", "TOWNSHIP": "Hanjiang", "All_Villages_adjusted_with_VillageID_VillageID": null, "Village_ID_Information_OID": null, "Village_ID_Information_COUNTY": null, "Village_ID_Information_VILLAGE_ID": null, "Village_ID_Information_PINGYING": null }, "geometry": { "type": "Point", "coordinates": [ 119.0953, 25.4354 ] } },
{ "type": "Feature", "properties": { "OBJECTID": 86, "VILLAGEID": 110513, "NAME": "Ta qiao", "HANZI": "塔桥", "TOWNSHIP": "Hanjiang", "All_Villages_adjusted_with_VillageID_VillageID": null, "Village_ID_Information_OID": null, "Village_ID_Information_COUNTY": null, "Village_ID_Information_VILLAGE_ID": null, "Village_ID_Information_PINGYING": null }, "geometry": { "type": "Point", "coordinates": [ 119.1192, 25.4653 ] } },
{ "type": "Feature", "properties": { "OBJECTID": 87, "VILLAGEID": 110512, "NAME": "Qian lin", "HANZI": "前林", "TOWNSHIP": "Hanjiang", "All_Villages_adjusted_with_VillageID_VillageID": null, "Village_ID_Information_OID": null, "Village_ID_Information_COUNTY": null, "Village_ID_Information_VILLAGE_ID": null, "Village_ID_Information_PINGYING": null }, "geometry": { "type": "Point", "coordinates": [ 119.0984, 25.454 ] } },
{ "type": "Feature", "properties": { "OBJECTID": 88, "VILLAGEID": 110026, "NAME": "Pu wei", "HANZI": "埔尾", "TOWNSHIP": "Hanjiang", "All_Villages_adjusted_with_VillageID_VillageID": null, "Village_ID_Information_OID": null, "Village_ID_Information_COUNTY": null, "Village_ID_Information_VILLAGE_ID": null, "Village_ID_Information_PINGYING": null }, "geometry": { "type": "Point", "coordinates": [ 119.1302, 25.4694 ] } },
{ "type": "Feature", "properties": { "OBJECTID": 89, "VILLAGEID": 110514, "NAME": "San jiang kou", "HANZI": "三江口", "TOWNSHIP": "Hanjiang", "All_Villages_adjusted_with_VillageID_VillageID": null, "Village_ID_Information_OID": null, "Village_ID_Information_COUNTY": null, "Village_ID_Information_VILLAGE_ID": null, "Village_ID_Information_PINGYING": null }, "geometry": { "type": "Point", "coordinates": [ 119.1127, 25.4291 ] } },
{ "type": "Feature", "properties": { "OBJECTID": 90, "VILLAGEID": 110017, "NAME": "San gu", "HANZI": "三股", "TOWNSHIP": "Hanjiang", "All_Villages_adjusted_with_VillageID_VillageID": null, "Village_ID_Information_OID": null, "Village_ID_Information_COUNTY": null, "Village_ID_Information_VILLAGE_ID": null, "Village_ID_Information_PINGYING": null }, "geometry": { "type": "Point", "coordinates": [ 119.1304, 25.4784 ] } },
{ "type": "Feature", "properties": { "OBJECTID": 91, "VILLAGEID": 110130, "NAME": "Qian ting", "HANZI": "前亭", "TOWNSHIP": "Hanjiang", "All_Villages_adjusted_with_VillageID_VillageID": null, "Village_ID_Information_OID": null, "Village_ID_Information_COUNTY": null, "Village_ID_Information_VILLAGE_ID": null, "Village_ID_Information_PINGYING": null }, "geometry": { "type": "Point", "coordinates": [ 119.0657, 25.4607 ] } },
{ "type": "Feature", "properties": { "OBJECTID": 92, "VILLAGEID": 110006, "NAME": "Qin dong", "HANZI": "沁东", "TOWNSHIP": "Hanjiang", "All_Villages_adjusted_with_VillageID_VillageID": null, "Village_ID_Information_OID": null, "Village_ID_Information_COUNTY": null, "Village_ID_Information_VILLAGE_ID": null, "Village_ID_Information_PINGYING": null }, "geometry": { "type": "Point", "coordinates": [ 119.1258, 25.491 ] } },
{ "type": "Feature", "properties": { "OBJECTID": 93, "VILLAGEID": 110033, "NAME": "Chen qiao", "HANZI": "陈桥", "TOWNSHIP": "Hanjiang", "All_Villages_adjusted_with_VillageID_VillageID": null, "Village_ID_Information_OID": null, "Village_ID_Information_COUNTY": null, "Village_ID_Information_VILLAGE_ID": null, "Village_ID_Information_PINGYING": null }, "geometry": { "type": "Point", "coordinates": [ 119.0702, 25.4418 ] } },
{ "type": "Feature", "properties": { "OBJECTID": 94, "VILLAGEID": 110023, "NAME": "Tan wei", "HANZI": "潭尾", "TOWNSHIP": "Hanjiang", "All_Villages_adjusted_with_VillageID_VillageID": null, "Village_ID_Information_OID": null, "Village_ID_Information_COUNTY": null, "Village_ID_Information_VILLAGE_ID": null, "Village_ID_Information_PINGYING": null }, "geometry": { "type": "Point", "coordinates": [ 119.1256, 25.4797 ] } },
{ "type": "Feature", "properties": { "OBJECTID": 95, "VILLAGEID": 110134, "NAME": "Tang bei", "HANZI": "塘北", "TOWNSHIP": "Hanjiang", "All_Villages_adjusted_with_VillageID_VillageID": null, "Village_ID_Information_OID": null, "Village_ID_Information_COUNTY": null, "Village_ID_Information_VILLAGE_ID": null, "Village_ID_Information_PINGYING": null }, "geometry": { "type": "Point", "coordinates": [ 119.1048, 25.4614 ] } },
{ "type": "Feature", "properties": { "OBJECTID": 96, "VILLAGEID": 110011, "NAME": "Tang xi", "HANZI": "塘西", "TOWNSHIP": "Hanjiang", "All_Villages_adjusted_with_VillageID_VillageID": null, "Village_ID_Information_OID": null, "Village_ID_Information_COUNTY": null, "Village_ID_Information_VILLAGE_ID": null, "Village_ID_Information_PINGYING": null }, "geometry": { "type": "Point", "coordinates": [ 119.1179, 25.4811 ] } },
{ "type": "Feature", "properties": { "OBJECTID": 97, "VILLAGEID": 110155, "NAME": "Tian cen", "HANZI": "田岑", "TOWNSHIP": "Hanjiang", "All_Villages_adjusted_with_VillageID_VillageID": null, "Village_ID_Information_OID": null, "Village_ID_Information_COUNTY": null, "Village_ID_Information_VILLAGE_ID": null, "Village_ID_Information_PINGYING": null }, "geometry": { "type": "Point", "coordinates": [ 119.0779, 25.4677 ] } },
{ "type": "Feature", "properties": { "OBJECTID": 98, "VILLAGEID": 110515, "NAME": "Tian cuo", "HANZI": "田厝", "TOWNSHIP": "Hanjiang", "All_Villages_adjusted_with_VillageID_VillageID": null, "Village_ID_Information_OID": null, "Village_ID_Information_COUNTY": null, "Village_ID_Information_VILLAGE_ID": null, "Village_ID_Information_PINGYING": null }, "geometry": { "type": "Point", "coordinates": [ 119.1123, 25.4469 ] } },
{ "type": "Feature", "properties": { "OBJECTID": 99, "VILLAGEID": 110140, "NAME": "Tian tou", "HANZI": "田头", "TOWNSHIP": "Hanjiang", "All_Villages_adjusted_with_VillageID_VillageID": null, "Village_ID_Information_OID": null, "Village_ID_Information_COUNTY": null, "Village_ID_Information_VILLAGE_ID": null, "Village_ID_Information_PINGYING": null }, "geometry": { "type": "Point", "coordinates": [ 119.1542, 25.4622 ] } },
{ "type": "Feature", "properties": { "OBJECTID": 100, "VILLAGEID": 110029, "NAME": "Tie zao", "HANZI": "铁灶", "TOWNSHIP": "Hanjiang", "All_Villages_adjusted_with_VillageID_VillageID": null, "Village_ID_Information_OID": null, "Village_ID_Information_COUNTY": null, "Village_ID_Information_VILLAGE_ID": null, "Village_ID_Information_PINGYING": null }, "geometry": { "type": "Point", "coordinates": [ 119.1369, 25.4595 ] } },
{ "type": "Feature", "properties": { "OBJECTID": 101, "VILLAGEID": 110051, "NAME": "Wu jiao", "HANZI": "梧郊", "TOWNSHIP": "Hanjiang", "All_Villages_adjusted_with_VillageID_VillageID": null, "Village_ID_Information_OID": null, "Village_ID_Information_COUNTY": null, "Village_ID_Information_VILLAGE_ID": null, "Village_ID_Information_PINGYING": null }, "geometry": { "type": "Point", "coordinates": [ 119.0872, 25.4423 ] } },
{ "type": "Feature", "properties": { "OBJECTID": 102, "VILLAGEID": 110072, "NAME": "Wei tang", "HANZI": "魏塘", "TOWNSHIP": "Hanjiang", "All_Villages_adjusted_with_VillageID_VillageID": null, "Village_ID_Information_OID": null, "Village_ID_Information_COUNTY": null, "Village_ID_Information_VILLAGE_ID": null, "Village_ID_Information_PINGYING": null }, "geometry": { "type": "Point", "coordinates": [ 119.0706, 25.4511 ] } },
{ "type": "Feature", "properties": { "OBJECTID": 103, "VILLAGEID": 110126, "NAME": "Xi gang", "HANZI": "西港", "TOWNSHIP": "Hanjiang", "All_Villages_adjusted_with_VillageID_VillageID": null, "Village_ID_Information_OID": null, "Village_ID_Information_COUNTY": null, "Village_ID_Information_VILLAGE_ID": null, "Village_ID_Information_PINGYING": null }, "geometry": { "type": "Point", "coordinates": [ 119.0804, 25.4512 ] } },
{ "type": "Feature", "properties": { "OBJECTID": 104, "VILLAGEID": 110055, "NAME": "Xi hu", "HANZI": "西湖", "TOWNSHIP": "Hanjiang", "All_Villages_adjusted_with_VillageID_VillageID": null, "Village_ID_Information_OID": null, "Village_ID_Information_COUNTY": null, "Village_ID_Information_VILLAGE_ID": null, "Village_ID_Information_PINGYING": null }, "geometry": { "type": "Point", "coordinates": [ 119.09, 25.4492 ] } },
{ "type": "Feature", "properties": { "OBJECTID": 105, "VILLAGEID": 110516, "NAME": "Xi jiang bian", "HANZI": "西江边", "TOWNSHIP": "Hanjiang", "All_Villages_adjusted_with_VillageID_VillageID": null, "Village_ID_Information_OID": null, "Village_ID_Information_COUNTY": null, "Village_ID_Information_VILLAGE_ID": null, "Village_ID_Information_PINGYING": null }, "geometry": { "type": "Point", "coordinates": [ 119.0686, 25.4754 ] } },
{ "type": "Feature", "properties": { "OBJECTID": 106, "VILLAGEID": 110021, "NAME": "Wen cuo", "HANZI": "温厝", "TOWNSHIP": "Hanjiang", "All_Villages_adjusted_with_VillageID_VillageID": null, "Village_ID_Information_OID": null, "Village_ID_Information_COUNTY": null, "Village_ID_Information_VILLAGE_ID": null, "Village_ID_Information_PINGYING": null }, "geometry": { "type": "Point", "coordinates": [ 119.1452, 25.4718 ] } },
{ "type": "Feature", "properties": { "OBJECTID": 107, "VILLAGEID": 110086, "NAME": "Xi po", "HANZI": "西坡", "TOWNSHIP": "Hanjiang", "All_Villages_adjusted_with_VillageID_VillageID": null, "Village_ID_Information_OID": null, "Village_ID_Information_COUNTY": null, "Village_ID_Information_VILLAGE_ID": null, "Village_ID_Information_PINGYING": null }, "geometry": { "type": "Point", "coordinates": [ 119.1017, 25.4683 ] } },
{ "type": "Feature", "properties": { "OBJECTID": 108, "VILLAGEID": 110027, "NAME": "Xi hu", "HANZI": "西湖", "TOWNSHIP": "Hanjiang", "All_Villages_adjusted_with_VillageID_VillageID": null, "Village_ID_Information_OID": null, "Village_ID_Information_COUNTY": null, "Village_ID_Information_VILLAGE_ID": null, "Village_ID_Information_PINGYING": null }, "geometry": { "type": "Point", "coordinates": [ 119.139, 25.4829 ] } },
{ "type": "Feature", "properties": { "OBJECTID": 109, "VILLAGEID": 110111, "NAME": "Xia ke", "HANZI": "下柯", "TOWNSHIP": "Hanjiang", "All_Villages_adjusted_with_VillageID_VillageID": null, "Village_ID_Information_OID": null, "Village_ID_Information_COUNTY": null, "Village_ID_Information_VILLAGE_ID": null, "Village_ID_Information_PINGYING": null }, "geometry": { "type": "Point", "coordinates": [ 119.1463, 25.4572 ] } },
{ "type": "Feature", "properties": { "OBJECTID": 110, "VILLAGEID": 110085, "NAME": "Xia lin", "HANZI": "下林", "TOWNSHIP": "Hanjiang", "All_Villages_adjusted_with_VillageID_VillageID": null, "Village_ID_Information_OID": null, "Village_ID_Information_COUNTY": null, "Village_ID_Information_VILLAGE_ID": null, "Village_ID_Information_PINGYING": null }, "geometry": { "type": "Point", "coordinates": [ 119.1087, 25.4662 ] } },
{ "type": "Feature", "properties": { "OBJECTID": 111, "VILLAGEID": 110129, "NAME": "Xia yu", "HANZI": "下宇", "TOWNSHIP": "Hanjiang", "All_Villages_adjusted_with_VillageID_VillageID": null, "Village_ID_Information_OID": null, "Village_ID_Information_COUNTY": null, "Village_ID_Information_VILLAGE_ID": null, "Village_ID_Information_PINGYING": null }, "geometry": { "type": "Point", "coordinates": [ 119.0694, 25.4552 ] } },
{ "type": "Feature", "properties": { "OBJECTID": 112, "VILLAGEID": 110124, "NAME": "Guo zhuang", "HANZI": "郭庄", "TOWNSHIP": "Hanjiang", "All_Villages_adjusted_with_VillageID_VillageID": null, "Village_ID_Information_OID": null, "Village_ID_Information_COUNTY": null, "Village_ID_Information_VILLAGE_ID": null, "Village_ID_Information_PINGYING": null }, "geometry": { "type": "Point", "coordinates": [ 119.0702, 25.4474 ] } },
{ "type": "Feature", "properties": { "OBJECTID": 113, "VILLAGEID": 110073, "NAME": "Zhuang cuo", "HANZI": "庄厝", "TOWNSHIP": "Hanjiang", "All_Villages_adjusted_with_VillageID_VillageID": null, "Village_ID_Information_OID": null, "Village_ID_Information_COUNTY": null, "Village_ID_Information_VILLAGE_ID": null, "Village_ID_Information_PINGYING": null }, "geometry": { "type": "Point", "coordinates": [ 119.077, 25.4498 ] } },
{ "type": "Feature", "properties": { "OBJECTID": 114, "VILLAGEID": 110009, "NAME": "Ding shang lin", "HANZI": "顶上林", "TOWNSHIP": "Hanjiang", "All_Villages_adjusted_with_VillageID_VillageID": null, "Village_ID_Information_OID": null, "Village_ID_Information_COUNTY": null, "Village_ID_Information_VILLAGE_ID": null, "Village_ID_Information_PINGYING": null }, "geometry": { "type": "Point", "coordinates": [ 119.1054, 25.4941 ] } },
{ "type": "Feature", "properties": { "OBJECTID": 115, "VILLAGEID": 110542, "NAME": "Nan lin", "HANZI": "南林", "TOWNSHIP": "Hanjiang", "All_Villages_adjusted_with_VillageID_VillageID": null, "Village_ID_Information_OID": null, "Village_ID_Information_COUNTY": null, "Village_ID_Information_VILLAGE_ID": null, "Village_ID_Information_PINGYING": null }, "geometry": { "type": "Point", "coordinates": [ 119.1109, 25.4901 ] } },
{ "type": "Feature", "properties": { "OBJECTID": 116, "VILLAGEID": 110100, "NAME": "Dong cheng", "HANZI": "东埕", "TOWNSHIP": "Hanjiang", "All_Villages_adjusted_with_VillageID_VillageID": null, "Village_ID_Information_OID": null, "Village_ID_Information_COUNTY": null, "Village_ID_Information_VILLAGE_ID": null, "Village_ID_Information_PINGYING": null }, "geometry": { "type": "Point", "coordinates": [ 119.1466, 25.4516 ] } },
{ "type": "Feature", "properties": { "OBJECTID": 117, "VILLAGEID": 110131, "NAME": "Ma tou", "HANZI": "码头", "TOWNSHIP": "Hanjiang", "All_Villages_adjusted_with_VillageID_VillageID": null, "Village_ID_Information_OID": null, "Village_ID_Information_COUNTY": null, "Village_ID_Information_VILLAGE_ID": null, "Village_ID_Information_PINGYING": null }, "geometry": { "type": "Point", "coordinates": [ 119.0936, 25.4702 ] } },
{ "type": "Feature", "properties": { "OBJECTID": 118, "VILLAGEID": 110149, "NAME": "Mei wei", "HANZI": "美尾", "TOWNSHIP": "Hanjiang", "All_Villages_adjusted_with_VillageID_VillageID": null, "Village_ID_Information_OID": null, "Village_ID_Information_COUNTY": null, "Village_ID_Information_VILLAGE_ID": null, "Village_ID_Information_PINGYING": null }, "geometry": { "type": "Point", "coordinates": [ 119.1174, 25.4347 ] } },
{ "type": "Feature", "properties": { "OBJECTID": 119, "VILLAGEID": 110046, "NAME": "Nan cheng", "HANZI": "南埕", "TOWNSHIP": "Hanjiang", "All_Villages_adjusted_with_VillageID_VillageID": null, "Village_ID_Information_OID": null, "Village_ID_Information_COUNTY": null, "Village_ID_Information_VILLAGE_ID": null, "Village_ID_Information_PINGYING": null }, "geometry": { "type": "Point", "coordinates": [ 119.1015, 25.4307 ] } },
{ "type": "Feature", "properties": { "OBJECTID": 120, "VILLAGEID": 110113, "NAME": "Qi tou", "HANZI": "歧头", "TOWNSHIP": "Hanjiang", "All_Villages_adjusted_with_VillageID_VillageID": null, "Village_ID_Information_OID": null, "Village_ID_Information_COUNTY": null, "Village_ID_Information_VILLAGE_ID": null, "Village_ID_Information_PINGYING": null }, "geometry": { "type": "Point", "coordinates": [ 119.1551, 25.4508 ] } },
{ "type": "Feature", "properties": { "OBJECTID": 121, "VILLAGEID": 110123, "NAME": "Pu qian", "HANZI": "铺前", "TOWNSHIP": "Hanjiang", "All_Villages_adjusted_with_VillageID_VillageID": null, "Village_ID_Information_OID": null, "Village_ID_Information_COUNTY": null, "Village_ID_Information_VILLAGE_ID": null, "Village_ID_Information_PINGYING": null }, "geometry": { "type": "Point", "coordinates": [ 119.069, 25.4536 ] } },
{ "type": "Feature", "properties": { "OBJECTID": 122, "VILLAGEID": 110005, "NAME": "Qin xi", "HANZI": "沁西", "TOWNSHIP": "Hanjiang", "All_Villages_adjusted_with_VillageID_VillageID": null, "Village_ID_Information_OID": null, "Village_ID_Information_COUNTY": null, "Village_ID_Information_VILLAGE_ID": null, "Village_ID_Information_PINGYING": null }, "geometry": { "type": "Point", "coordinates": [ 119.124, 25.489 ] } },
{ "type": "Feature", "properties": { "OBJECTID": 123, "VILLAGEID": 110013, "NAME": "Huang xiang", "HANZI": "黄巷", "TOWNSHIP": "Hanjiang", "All_Villages_adjusted_with_VillageID_VillageID": null, "Village_ID_Information_OID": null, "Village_ID_Information_COUNTY": null, "Village_ID_Information_VILLAGE_ID": null, "Village_ID_Information_PINGYING": null }, "geometry": { "type": "Point", "coordinates": [ 119.1052, 25.4787 ] } },
{ "type": "Feature", "properties": { "OBJECTID": 124, "VILLAGEID": 110519, "NAME": "Niu du", "HANZI": "牛度", "TOWNSHIP": "Hanjiang", "All_Villages_adjusted_with_VillageID_VillageID": null, "Village_ID_Information_OID": null, "Village_ID_Information_COUNTY": null, "Village_ID_Information_VILLAGE_ID": null, "Village_ID_Information_PINGYING": null }, "geometry": { "type": "Point", "coordinates": [ 119.1235, 25.4608 ] } },
{ "type": "Feature", "properties": { "OBJECTID": 125, "VILLAGEID": 110160, "NAME": "Qin keng", "HANZI": "芹坑", "TOWNSHIP": "Hanjiang", "All_Villages_adjusted_with_VillageID_VillageID": null, "Village_ID_Information_OID": null, "Village_ID_Information_COUNTY": null, "Village_ID_Information_VILLAGE_ID": null, "Village_ID_Information_PINGYING": null }, "geometry": { "type": "Point", "coordinates": [ 119.1416, 25.4798 ] } },
{ "type": "Feature", "properties": { "OBJECTID": 126, "VILLAGEID": 110520, "NAME": "Qin yuan", "HANZI": "沁园", "TOWNSHIP": "Hanjiang", "All_Villages_adjusted_with_VillageID_VillageID": null, "Village_ID_Information_OID": null, "Village_ID_Information_COUNTY": null, "Village_ID_Information_VILLAGE_ID": null, "Village_ID_Information_PINGYING": null }, "geometry": { "type": "Point", "coordinates": [ 119.1256, 25.4891 ] } },
{ "type": "Feature", "properties": { "OBJECTID": 127, "VILLAGEID": 110050, "NAME": "Shang yu", "HANZI": "上俞", "TOWNSHIP": "Hanjiang", "All_Villages_adjusted_with_VillageID_VillageID": null, "Village_ID_Information_OID": null, "Village_ID_Information_COUNTY": null, "Village_ID_Information_VILLAGE_ID": null, "Village_ID_Information_PINGYING": null }, "geometry": { "type": "Point", "coordinates": [ 119.0905, 25.4428 ] } },
{ "type": "Feature", "properties": { "OBJECTID": 128, "VILLAGEID": 110136, "NAME": "Shang zheng", "HANZI": "上郑", "TOWNSHIP": "Hanjiang", "All_Villages_adjusted_with_VillageID_VillageID": null, "Village_ID_Information_OID": null, "Village_ID_Information_COUNTY": null, "Village_ID_Information_VILLAGE_ID": null, "Village_ID_Information_PINGYING": null }, "geometry": { "type": "Point", "coordinates": [ 119.0823, 25.4539 ] } },
{ "type": "Feature", "properties": { "OBJECTID": 129, "VILLAGEID": 110058, "NAME": "Shang guo", "HANZI": "上郭", "TOWNSHIP": "Hanjiang", "All_Villages_adjusted_with_VillageID_VillageID": null, "Village_ID_Information_OID": null, "Village_ID_Information_COUNTY": null, "Village_ID_Information_VILLAGE_ID": null, "Village_ID_Information_PINGYING": null }, "geometry": { "type": "Point", "coordinates": [ 119.0703, 25.4618 ] } },
{ "type": "Feature", "properties": { "OBJECTID": 130, "VILLAGEID": 110034, "NAME": "Shan bu", "HANZI": "山步", "TOWNSHIP": "Hanjiang", "All_Villages_adjusted_with_VillageID_VillageID": null, "Village_ID_Information_OID": null, "Village_ID_Information_COUNTY": null, "Village_ID_Information_VILLAGE_ID": null, "Village_ID_Information_PINGYING": null }, "geometry": { "type": "Point", "coordinates": [ 119.073, 25.4389 ] } },
{ "type": "Feature", "properties": { "OBJECTID": 131, "VILLAGEID": 110028, "NAME": "Shi shan", "HANZI": "石山", "TOWNSHIP": "Hanjiang", "All_Villages_adjusted_with_VillageID_VillageID": null, "Village_ID_Information_OID": null, "Village_ID_Information_COUNTY": null, "Village_ID_Information_VILLAGE_ID": null, "Village_ID_Information_PINGYING": null }, "geometry": { "type": "Point", "coordinates": [ 119.141, 25.4466 ] } },
{ "type": "Feature", "properties": { "OBJECTID": 132, "VILLAGEID": 110141, "NAME": "Jin dun", "HANZI": "金墩", "TOWNSHIP": "Hanjiang", "All_Villages_adjusted_with_VillageID_VillageID": null, "Village_ID_Information_OID": null, "Village_ID_Information_COUNTY": null, "Village_ID_Information_VILLAGE_ID": null, "Village_ID_Information_PINGYING": null }, "geometry": { "type": "Point", "coordinates": [ 119.1244, 25.451 ] } },
{ "type": "Feature", "properties": { "OBJECTID": 133, "VILLAGEID": 110001, "NAME": "Su cuo", "HANZI": "苏厝", "TOWNSHIP": "Hanjiang", "All_Villages_adjusted_with_VillageID_VillageID": null, "Village_ID_Information_OID": null, "Village_ID_Information_COUNTY": null, "Village_ID_Information_VILLAGE_ID": null, "Village_ID_Information_PINGYING": null }, "geometry": { "type": "Point", "coordinates": [ 119.1302, 25.4523 ] } },
{ "type": "Feature", "properties": { "OBJECTID": 134, "VILLAGEID": 110078, "NAME": "Su dun", "HANZI": "苏墩", "TOWNSHIP": "Hanjiang", "All_Villages_adjusted_with_VillageID_VillageID": null, "Village_ID_Information_OID": null, "Village_ID_Information_COUNTY": null, "Village_ID_Information_VILLAGE_ID": null, "Village_ID_Information_PINGYING": null }, "geometry": { "type": "Point", "coordinates": [ 119.1091, 25.445 ] } },
{ "type": "Feature", "properties": { "OBJECTID": 135, "VILLAGEID": 110518, "NAME": "Tang tou", "HANZI": "塘头", "TOWNSHIP": "Hanjiang", "All_Villages_adjusted_with_VillageID_VillageID": null, "Village_ID_Information_OID": null, "Village_ID_Information_COUNTY": null, "Village_ID_Information_VILLAGE_ID": null, "Village_ID_Information_PINGYING": null }, "geometry": { "type": "Point", "coordinates": [ 119.1289, 25.4787 ] } },
{ "type": "Feature", "properties": { "OBJECTID": 136, "VILLAGEID": 110142, "NAME": "Zhong dun", "HANZI": "中墩", "TOWNSHIP": "Hanjiang", "All_Villages_adjusted_with_VillageID_VillageID": null, "Village_ID_Information_OID": null, "Village_ID_Information_COUNTY": null, "Village_ID_Information_VILLAGE_ID": null, "Village_ID_Information_PINGYING": null }, "geometry": { "type": "Point", "coordinates": [ 119.1261, 25.4557 ] } },
{ "type": "Feature", "properties": { "OBJECTID": 137, "VILLAGEID": 110151, "NAME": "Xia dong dun", "HANZI": "下东墩", "TOWNSHIP": "Hanjiang", "All_Villages_adjusted_with_VillageID_VillageID": null, "Village_ID_Information_OID": null, "Village_ID_Information_COUNTY": null, "Village_ID_Information_VILLAGE_ID": null, "Village_ID_Information_PINGYING": null }, "geometry": { "type": "Point", "coordinates": [ 119.0634, 25.4454 ] } },
{ "type": "Feature", "properties": { "OBJECTID": 138, "VILLAGEID": 110152, "NAME": "Xia fang", "HANZI": "下坊", "TOWNSHIP": "Hanjiang", "All_Villages_adjusted_with_VillageID_VillageID": null, "Village_ID_Information_OID": null, "Village_ID_Information_COUNTY": null, "Village_ID_Information_VILLAGE_ID": null, "Village_ID_Information_PINGYING": null }, "geometry": { "type": "Point", "coordinates": [ 119.0754, 25.4638 ] } },
{ "type": "Feature", "properties": { "OBJECTID": 139, "VILLAGEID": 110521, "NAME": "Xiao hu", "HANZI": "孝户", "TOWNSHIP": "Hanjiang", "All_Villages_adjusted_with_VillageID_VillageID": null, "Village_ID_Information_OID": null, "Village_ID_Information_COUNTY": null, "Village_ID_Information_VILLAGE_ID": null, "Village_ID_Information_PINGYING": null }, "geometry": { "type": "Point", "coordinates": [ 119.0832, 25.4222 ] } },
{ "type": "Feature", "properties": { "OBJECTID": 140, "VILLAGEID": 110522, "NAME": "Xin cuo", "HANZI": "新厝", "TOWNSHIP": "Hanjiang", "All_Villages_adjusted_with_VillageID_VillageID": null, "Village_ID_Information_OID": null, "Village_ID_Information_COUNTY": null, "Village_ID_Information_VILLAGE_ID": null, "Village_ID_Information_PINGYING": null }, "geometry": { "type": "Point", "coordinates": [ 119.1343, 25.4342 ] } },
{ "type": "Feature", "properties": { "OBJECTID": 141, "VILLAGEID": 110161, "NAME": "Zhen qian", "HANZI": "镇前", "TOWNSHIP": "Hanjiang", "All_Villages_adjusted_with_VillageID_VillageID": null, "Village_ID_Information_OID": null, "Village_ID_Information_COUNTY": null, "Village_ID_Information_VILLAGE_ID": null, "Village_ID_Information_PINGYING": null }, "geometry": { "type": "Point", "coordinates": [ 119.084, 25.4299 ] } },
{ "type": "Feature", "properties": { "OBJECTID": 142, "VILLAGEID": 110523, "NAME": "Zhu zhuang", "HANZI": "朱庄", "TOWNSHIP": "Hanjiang", "All_Villages_adjusted_with_VillageID_VillageID": null, "Village_ID_Information_OID": null, "Village_ID_Information_COUNTY": null, "Village_ID_Information_VILLAGE_ID": null, "Village_ID_Information_PINGYING": null }, "geometry": { "type": "Point", "coordinates": [ 119.0697, 25.4586 ] } },
{ "type": "Feature", "properties": { "OBJECTID": 143, "VILLAGEID": 110015, "NAME": "Zhuo po", "HANZI": "卓坡", "TOWNSHIP": "Hanjiang", "All_Villages_adjusted_with_VillageID_VillageID": null, "Village_ID_Information_OID": null, "Village_ID_Information_COUNTY": null, "Village_ID_Information_VILLAGE_ID": null, "Village_ID_Information_PINGYING": null }, "geometry": { "type": "Point", "coordinates": [ 119.1187, 25.4697 ] } },
{ "type": "Feature", "properties": { "OBJECTID": 144, "VILLAGEID": 110133, "NAME": "Xi lin", "HANZI": "西林", "TOWNSHIP": "Hanjiang", "All_Villages_adjusted_with_VillageID_VillageID": null, "Village_ID_Information_OID": null, "Village_ID_Information_COUNTY": null, "Village_ID_Information_VILLAGE_ID": null, "Village_ID_Information_PINGYING": null }, "geometry": { "type": "Point", "coordinates": [ 119.1, 25.4664 ] } },
{ "type": "Feature", "properties": { "OBJECTID": 145, "VILLAGEID": 110533, "NAME": "Hou xue", "HANZI": "后学", "TOWNSHIP": "Hanjiang", "All_Villages_adjusted_with_VillageID_VillageID": null, "Village_ID_Information_OID": null, "Village_ID_Information_COUNTY": null, "Village_ID_Information_VILLAGE_ID": null, "Village_ID_Information_PINGYING": null }, "geometry": { "type": "Point", "coordinates": [ 119.1049, 25.4394 ] } },
{ "type": "Feature", "properties": { "OBJECTID": 146, "VILLAGEID": 110020, "NAME": "Hou yang", "HANZI": "后洋", "TOWNSHIP": "Hanjiang", "All_Villages_adjusted_with_VillageID_VillageID": null, "Village_ID_Information_OID": null, "Village_ID_Information_COUNTY": null, "Village_ID_Information_VILLAGE_ID": null, "Village_ID_Information_PINGYING": null }, "geometry": { "type": "Point", "coordinates": [ 119.1308, 25.4816 ] } },
{ "type": "Feature", "properties": { "OBJECTID": 147, "VILLAGEID": 110525, "NAME": "Tang bian", "HANZI": "塘边", "TOWNSHIP": "Hanjiang", "All_Villages_adjusted_with_VillageID_VillageID": null, "Village_ID_Information_OID": null, "Village_ID_Information_COUNTY": null, "Village_ID_Information_VILLAGE_ID": null, "Village_ID_Information_PINGYING": null }, "geometry": { "type": "Point", "coordinates": [ 119.1341, 25.485 ] } },
{ "type": "Feature", "properties": { "OBJECTID": 148, "VILLAGEID": 110159, "NAME": "Tang bian", "HANZI": "塘边", "TOWNSHIP": "Hanjiang", "All_Villages_adjusted_with_VillageID_VillageID": null, "Village_ID_Information_OID": null, "Village_ID_Information_COUNTY": null, "Village_ID_Information_VILLAGE_ID": null, "Village_ID_Information_PINGYING": null }, "geometry": { "type": "Point", "coordinates": [ 119.0921, 25.4358 ] } },
{ "type": "Feature", "properties": { "OBJECTID": 149, "VILLAGEID": 110526, "NAME": "Wu cai gang", "HANZI": "乌菜港", "TOWNSHIP": "Hanjiang", "All_Villages_adjusted_with_VillageID_VillageID": null, "Village_ID_Information_OID": null, "Village_ID_Information_COUNTY": null, "Village_ID_Information_VILLAGE_ID": null, "Village_ID_Information_PINGYING": null }, "geometry": { "type": "Point", "coordinates": [ 119.1259, 25.4242 ] } },
{ "type": "Feature", "properties": { "OBJECTID": 150, "VILLAGEID": 110022, "NAME": "Xiang li", "HANZI": "巷利", "TOWNSHIP": "Hanjiang", "All_Villages_adjusted_with_VillageID_VillageID": null, "Village_ID_Information_OID": null, "Village_ID_Information_COUNTY": null, "Village_ID_Information_VILLAGE_ID": null, "Village_ID_Information_PINGYING": null }, "geometry": { "type": "Point", "coordinates": [ 119.1284, 25.4792 ] } },
{ "type": "Feature", "properties": { "OBJECTID": 151, "VILLAGEID": 110529, "NAME": "Yang ding", "HANZI": "洋顶", "TOWNSHIP": "Hanjiang", "All_Villages_adjusted_with_VillageID_VillageID": null, "Village_ID_Information_OID": null, "Village_ID_Information_COUNTY": null, "Village_ID_Information_VILLAGE_ID": null, "Village_ID_Information_PINGYING": null }, "geometry": { "type": "Point", "coordinates": [ 119.1156, 25.4479 ] } },
{ "type": "Feature", "properties": { "OBJECTID": 152, "VILLAGEID": 110528, "NAME": "Tian zhong yang", "HANZI": "田中央", "TOWNSHIP": "Hanjiang", "All_Villages_adjusted_with_VillageID_VillageID": null, "Village_ID_Information_OID": null, "Village_ID_Information_COUNTY": null, "Village_ID_Information_VILLAGE_ID": null, "Village_ID_Information_PINGYING": null }, "geometry": { "type": "Point", "coordinates": [ 119.1123, 25.4474 ] } },
{ "type": "Feature", "properties": { "OBJECTID": 153, "VILLAGEID": 900500, "NAME": "Bei mo", "HANZI": "北磨", "TOWNSHIP": "Chengjiao", "All_Villages_adjusted_with_VillageID_VillageID": null, "Village_ID_Information_OID": null, "Village_ID_Information_COUNTY": null, "Village_ID_Information_VILLAGE_ID": null, "Village_ID_Information_PINGYING": null }, "geometry": { "type": "Point", "coordinates": [ 118.9975, 25.4471 ] } },
{ "type": "Feature", "properties": { "OBJECTID": 154, "VILLAGEID": 900501, "NAME": "Bei pu", "HANZI": "陂埔", "TOWNSHIP": "Chengjiao", "All_Villages_adjusted_with_VillageID_VillageID": null, "Village_ID_Information_OID": null, "Village_ID_Information_COUNTY": null, "Village_ID_Information_VILLAGE_ID": null, "Village_ID_Information_PINGYING": null }, "geometry": { "type": "Point", "coordinates": [ 119.0042, 25.4696 ] } },
{ "type": "Feature", "properties": { "OBJECTID": 155, "VILLAGEID": 900502, "NAME": "Ding xia xie", "HANZI": "顶下斜", "TOWNSHIP": "Chengjiao", "All_Villages_adjusted_with_VillageID_VillageID": null, "Village_ID_Information_OID": null, "Village_ID_Information_COUNTY": null, "Village_ID_Information_VILLAGE_ID": null, "Village_ID_Information_PINGYING": null }, "geometry": { "type": "Point", "coordinates": [ 118.9936, 25.448 ] } },
{ "type": "Feature", "properties": { "OBJECTID": 156, "VILLAGEID": 900504, "NAME": "Yang zhong yang", "HANZI": "洋中央", "TOWNSHIP": "Chengjiao", "All_Villages_adjusted_with_VillageID_VillageID": null, "Village_ID_Information_OID": null, "Village_ID_Information_COUNTY": null, "Village_ID_Information_VILLAGE_ID": null, "Village_ID_Information_PINGYING": null }, "geometry": { "type": "Point", "coordinates": [ 119.0478, 25.4467 ] } },
{ "type": "Feature", "properties": { "OBJECTID": 157, "VILLAGEID": 900097, "NAME": "An fu", "HANZI": "安福", "TOWNSHIP": "Chengjiao", "All_Villages_adjusted_with_VillageID_VillageID": null, "Village_ID_Information_OID": null, "Village_ID_Information_COUNTY": null, "Village_ID_Information_VILLAGE_ID": null, "Village_ID_Information_PINGYING": null }, "geometry": { "type": "Point", "coordinates": [ 119.0093, 25.4469 ] } },
{ "type": "Feature", "properties": { "OBJECTID": 158, "VILLAGEID": 900002, "NAME": "Bai yang", "HANZI": "白洋", "TOWNSHIP": "Chengjiao", "All_Villages_adjusted_with_VillageID_VillageID": null, "Village_ID_Information_OID": null, "Village_ID_Information_COUNTY": null, "Village_ID_Information_VILLAGE_ID": null, "Village_ID_Information_PINGYING": null }, "geometry": { "type": "Point", "coordinates": [ 118.9483, 25.4323 ] } },
{ "type": "Feature", "properties": { "OBJECTID": 159, "VILLAGEID": 900009, "NAME": "Bai yu ling", "HANZI": "白玉岭", "TOWNSHIP": "Chengjiao", "All_Villages_adjusted_with_VillageID_VillageID": null, "Village_ID_Information_OID": null, "Village_ID_Information_COUNTY": null, "Village_ID_Information_VILLAGE_ID": null, "Village_ID_Information_PINGYING": null }, "geometry": { "type": "Point", "coordinates": [ 118.9856, 25.4004 ] } },
{ "type": "Feature", "properties": { "OBJECTID": 160, "VILLAGEID": 900014, "NAME": "Ban tou", "HANZI": "坂头", "TOWNSHIP": "Chengjiao", "All_Villages_adjusted_with_VillageID_VillageID": null, "Village_ID_Information_OID": null, "Village_ID_Information_COUNTY": null, "Village_ID_Information_VILLAGE_ID": null, "Village_ID_Information_PINGYING": null }, "geometry": { "type": "Point", "coordinates": [ 119.0006, 25.4076 ] } },
{ "type": "Feature", "properties": { "OBJECTID": 161, "VILLAGEID": 900139, "NAME": "Da lu wei", "HANZI": "北磨大路尾", "TOWNSHIP": "Chengjiao", "All_Villages_adjusted_with_VillageID_VillageID": null, "Village_ID_Information_OID": null, "Village_ID_Information_COUNTY": null, "Village_ID_Information_VILLAGE_ID": null, "Village_ID_Information_PINGYING": null }, "geometry": { "type": "Point", "coordinates": [ 118.9964, 25.4448 ] } },
{ "type": "Feature", "properties": { "OBJECTID": 162, "VILLAGEID": 900127, "NAME": "Bu yun", "HANZI": "步云", "TOWNSHIP": "Chengjiao", "All_Villages_adjusted_with_VillageID_VillageID": null, "Village_ID_Information_OID": null, "Village_ID_Information_COUNTY": null, "Village_ID_Information_VILLAGE_ID": null, "Village_ID_Information_PINGYING": null }, "geometry": { "type": "Point", "coordinates": [ 119.0333, 25.4078 ] } },
{ "type": "Feature", "properties": { "OBJECTID": 163, "VILLAGEID": 900019, "NAME": "Cai zhai", "HANZI": "蔡宅", "TOWNSHIP": "Chengjiao", "All_Villages_adjusted_with_VillageID_VillageID": null, "Village_ID_Information_OID": null, "Village_ID_Information_COUNTY": null, "Village_ID_Information_VILLAGE_ID": null, "Village_ID_Information_PINGYING": null }, "geometry": { "type": "Point", "coordinates": [ 118.9924, 25.4208 ] } },
{ "type": "Feature", "properties": { "OBJECTID": 164, "VILLAGEID": 900030, "NAME": "Cao zhu", "HANZI": "草渚", "TOWNSHIP": "Chengjiao", "All_Villages_adjusted_with_VillageID_VillageID": null, "Village_ID_Information_OID": null, "Village_ID_Information_COUNTY": null, "Village_ID_Information_VILLAGE_ID": null, "Village_ID_Information_PINGYING": null }, "geometry": { "type": "Point", "coordinates": [ 119.0421, 25.4264 ] } },
{ "type": "Feature", "properties": { "OBJECTID": 165, "VILLAGEID": 900074, "NAME": "Chai qiao tou", "HANZI": "柴桥头", "TOWNSHIP": "Chengjiao", "All_Villages_adjusted_with_VillageID_VillageID": null, "Village_ID_Information_OID": null, "Village_ID_Information_COUNTY": null, "Village_ID_Information_VILLAGE_ID": null, "Village_ID_Information_PINGYING": null }, "geometry": { "type": "Point", "coordinates": [ 119.0478, 25.4493 ] } },
{ "type": "Feature", "properties": { "OBJECTID": 166, "VILLAGEID": 900049, "NAME": "Chang feng", "HANZI": "长丰", "TOWNSHIP": "Chengjiao", "All_Villages_adjusted_with_VillageID_VillageID": null, "Village_ID_Information_OID": null, "Village_ID_Information_COUNTY": null, "Village_ID_Information_VILLAGE_ID": null, "Village_ID_Information_PINGYING": null }, "geometry": { "type": "Point", "coordinates": [ 119.0532, 25.4476 ] } },
{ "type": "Feature", "properties": { "OBJECTID": 167, "VILLAGEID": 900082, "NAME": "Chang shan", "HANZI": "畅山", "TOWNSHIP": "Chengjiao", "All_Villages_adjusted_with_VillageID_VillageID": null, "Village_ID_Information_OID": null, "Village_ID_Information_COUNTY": null, "Village_ID_Information_VILLAGE_ID": null, "Village_ID_Information_PINGYING": null }, "geometry": { "type": "Point", "coordinates": [ 119.0262, 25.4654 ] } },
{ "type": "Feature", "properties": { "OBJECTID": 168, "VILLAGEID": 900064, "NAME": "Chen nan", "HANZI": "辰南", "TOWNSHIP": "Chengjiao", "All_Villages_adjusted_with_VillageID_VillageID": null, "Village_ID_Information_OID": null, "Village_ID_Information_COUNTY": null, "Village_ID_Information_VILLAGE_ID": null, "Village_ID_Information_PINGYING": null }, "geometry": { "type": "Point", "coordinates": [ 119.0562, 25.4438 ] } },
{ "type": "Feature", "properties": { "OBJECTID": 169, "VILLAGEID": 900505, "NAME": "Chen zhuang", "HANZI": "陈庄", "TOWNSHIP": "Chengjiao", "All_Villages_adjusted_with_VillageID_VillageID": null, "Village_ID_Information_OID": null, "Village_ID_Information_COUNTY": null, "Village_ID_Information_VILLAGE_ID": null, "Village_ID_Information_PINGYING": null }, "geometry": { "type": "Point", "coordinates": [ 119.0529, 25.4232 ] } },
{ "type": "Feature", "properties": { "OBJECTID": 170, "VILLAGEID": 900083, "NAME": "Da ba", "HANZI": "大坝", "TOWNSHIP": "Chengjiao", "All_Villages_adjusted_with_VillageID_VillageID": null, "Village_ID_Information_OID": null, "Village_ID_Information_COUNTY": null, "Village_ID_Information_VILLAGE_ID": null, "Village_ID_Information_PINGYING": null }, "geometry": { "type": "Point", "coordinates": [ 119.0316, 25.4662 ] } },
{ "type": "Feature", "properties": { "OBJECTID": 171, "VILLAGEID": 900506, "NAME": "Da cuo", "HANZI": "大厝", "TOWNSHIP": "Chengjiao", "All_Villages_adjusted_with_VillageID_VillageID": null, "Village_ID_Information_OID": null, "Village_ID_Information_COUNTY": null, "Village_ID_Information_VILLAGE_ID": null, "Village_ID_Information_PINGYING": null }, "geometry": { "type": "Point", "coordinates": [ 118.959, 25.4363 ] } },
{ "type": "Feature", "properties": { "OBJECTID": 172, "VILLAGEID": 900114, "NAME": "Da jie", "HANZI": "大街", "TOWNSHIP": "Chengjiao", "All_Villages_adjusted_with_VillageID_VillageID": null, "Village_ID_Information_OID": null, "Village_ID_Information_COUNTY": null, "Village_ID_Information_VILLAGE_ID": null, "Village_ID_Information_PINGYING": null }, "geometry": { "type": "Point", "coordinates": [ 119.0216, 25.4427 ] } },
{ "type": "Feature", "properties": { "OBJECTID": 173, "VILLAGEID": 900005, "NAME": "Da lan li", "HANZI": "大兰里", "TOWNSHIP": "Chengjiao", "All_Villages_adjusted_with_VillageID_VillageID": null, "Village_ID_Information_OID": null, "Village_ID_Information_COUNTY": null, "Village_ID_Information_VILLAGE_ID": null, "Village_ID_Information_PINGYING": null }, "geometry": { "type": "Point", "coordinates": [ 118.9649, 25.4301 ] } },
{ "type": "Feature", "properties": { "OBJECTID": 174, "VILLAGEID": 900128, "NAME": "Dai li", "HANZI": "埭里", "TOWNSHIP": "Chengjiao", "All_Villages_adjusted_with_VillageID_VillageID": null, "Village_ID_Information_OID": null, "Village_ID_Information_COUNTY": null, "Village_ID_Information_VILLAGE_ID": null, "Village_ID_Information_PINGYING": null }, "geometry": { "type": "Point", "coordinates": [ 119.036, 25.418 ] } },
{ "type": "Feature", "properties": { "OBJECTID": 175, "VILLAGEID": 113058, "NAME": "Ding cuo", "HANZI": "顶厝", "TOWNSHIP": "Quqiao", "All_Villages_adjusted_with_VillageID_VillageID": null, "Village_ID_Information_OID": null, "Village_ID_Information_COUNTY": null, "Village_ID_Information_VILLAGE_ID": null, "Village_ID_Information_PINGYING": null }, "geometry": { "type": "Point", "coordinates": [ 119.0116, 25.4108 ] } },
{ "type": "Feature", "properties": { "OBJECTID": 176, "VILLAGEID": 900022, "NAME": "Ding dun", "HANZI": "顶墩", "TOWNSHIP": "Chengjiao", "All_Villages_adjusted_with_VillageID_VillageID": null, "Village_ID_Information_OID": null, "Village_ID_Information_COUNTY": null, "Village_ID_Information_VILLAGE_ID": null, "Village_ID_Information_PINGYING": null }, "geometry": { "type": "Point", "coordinates": [ 119.0121, 25.4218 ] } },
{ "type": "Feature", "properties": { "OBJECTID": 177, "VILLAGEID": 900507, "NAME": "Ding long qiao", "HANZI": "顶龙桥", "TOWNSHIP": "Chengjiao", "All_Villages_adjusted_with_VillageID_VillageID": null, "Village_ID_Information_OID": null, "Village_ID_Information_COUNTY": null, "Village_ID_Information_VILLAGE_ID": null, "Village_ID_Information_PINGYING": null }, "geometry": { "type": "Point", "coordinates": [ 119.0074, 25.4534 ] } },
{ "type": "Feature", "properties": { "OBJECTID": 178, "VILLAGEID": 900135, "NAME": "Dong dai", "HANZI": "东埭", "TOWNSHIP": "Chengjiao", "All_Villages_adjusted_with_VillageID_VillageID": null, "Village_ID_Information_OID": null, "Village_ID_Information_COUNTY": null, "Village_ID_Information_VILLAGE_ID": null, "Village_ID_Information_PINGYING": null }, "geometry": { "type": "Point", "coordinates": [ 119.06, 25.4319 ] } },
{ "type": "Feature", "properties": { "OBJECTID": 179, "VILLAGEID": 900129, "NAME": "Dong men dou", "HANZI": "东门", "TOWNSHIP": "Chengjiao", "All_Villages_adjusted_with_VillageID_VillageID": null, "Village_ID_Information_OID": null, "Village_ID_Information_COUNTY": null, "Village_ID_Information_VILLAGE_ID": null, "Village_ID_Information_PINGYING": null }, "geometry": { "type": "Point", "coordinates": [ 119.0166, 25.4312 ] } },
{ "type": "Feature", "properties": { "OBJECTID": 180, "VILLAGEID": 900033, "NAME": "Dong jiao", "HANZI": "东郊", "TOWNSHIP": "Chengjiao", "All_Villages_adjusted_with_VillageID_VillageID": null, "Village_ID_Information_OID": null, "Village_ID_Information_COUNTY": null, "Village_ID_Information_VILLAGE_ID": null, "Village_ID_Information_PINGYING": null }, "geometry": { "type": "Point", "coordinates": [ 119.047, 25.4332 ] } },
{ "type": "Feature", "properties": { "OBJECTID": 181, "VILLAGEID": 900060, "NAME": "Dong yang", "HANZI": "东阳", "TOWNSHIP": "Chengjiao", "All_Villages_adjusted_with_VillageID_VillageID": null, "Village_ID_Information_OID": null, "Village_ID_Information_COUNTY": null, "Village_ID_Information_VILLAGE_ID": null, "Village_ID_Information_PINGYING": null }, "geometry": { "type": "Point", "coordinates": [ 119.0588, 25.4359 ] } },
{ "type": "Feature", "properties": { "OBJECTID": 182, "VILLAGEID": 900031, "NAME": "Dong zhou", "HANZI": "东州", "TOWNSHIP": "Chengjiao", "All_Villages_adjusted_with_VillageID_VillageID": null, "Village_ID_Information_OID": null, "Village_ID_Information_COUNTY": null, "Village_ID_Information_VILLAGE_ID": null, "Village_ID_Information_PINGYING": null }, "geometry": { "type": "Point", "coordinates": [ 119.048, 25.4284 ] } },
{ "type": "Feature", "properties": { "OBJECTID": 183, "VILLAGEID": 900039, "NAME": "Dou men tou", "HANZI": "陡门头", "TOWNSHIP": "Chengjiao", "All_Villages_adjusted_with_VillageID_VillageID": null, "Village_ID_Information_OID": null, "Village_ID_Information_COUNTY": null, "Village_ID_Information_VILLAGE_ID": null, "Village_ID_Information_PINGYING": null }, "geometry": { "type": "Point", "coordinates": [ 119.0449, 25.4307 ] } },
{ "type": "Feature", "properties": { "OBJECTID": 184, "VILLAGEID": 900058, "NAME": "Dun zi", "HANZI": "墩仔", "TOWNSHIP": "Chengjiao", "All_Villages_adjusted_with_VillageID_VillageID": null, "Village_ID_Information_OID": null, "Village_ID_Information_COUNTY": null, "Village_ID_Information_VILLAGE_ID": null, "Village_ID_Information_PINGYING": null }, "geometry": { "type": "Point", "coordinates": [ 119.0547, 25.4318 ] } },
{ "type": "Feature", "properties": { "OBJECTID": 185, "VILLAGEID": 900508, "NAME": "Er shi si mu", "HANZI": "二十四亩", "TOWNSHIP": "Chengjiao", "All_Villages_adjusted_with_VillageID_VillageID": null, "Village_ID_Information_OID": null, "Village_ID_Information_COUNTY": null, "Village_ID_Information_VILLAGE_ID": null, "Village_ID_Information_PINGYING": null }, "geometry": { "type": "Point", "coordinates": [ 118.9903, 25.4537 ] } },
{ "type": "Feature", "properties": { "OBJECTID": 186, "VILLAGEID": 900021, "NAME": "Feng huang shan", "HANZI": "凤凰山", "TOWNSHIP": "Chengjiao", "All_Villages_adjusted_with_VillageID_VillageID": null, "Village_ID_Information_OID": null, "Village_ID_Information_COUNTY": null, "Village_ID_Information_VILLAGE_ID": null, "Village_ID_Information_PINGYING": null }, "geometry": { "type": "Point", "coordinates": [ 118.9964, 25.4327 ] } },
{ "type": "Feature", "properties": { "OBJECTID": 187, "VILLAGEID": 900509, "NAME": "Feng mei", "HANZI": "丰美", "TOWNSHIP": "Chengjiao", "All_Villages_adjusted_with_VillageID_VillageID": null, "Village_ID_Information_OID": null, "Village_ID_Information_COUNTY": null, "Village_ID_Information_VILLAGE_ID": null, "Village_ID_Information_PINGYING": null }, "geometry": { "type": "Point", "coordinates": [ 119.0191, 25.4347 ] } },
{ "type": "Feature", "properties": { "OBJECTID": 188, "VILLAGEID": 900088, "NAME": "Gao jing", "HANZI": "高井", "TOWNSHIP": "Chengjiao", "All_Villages_adjusted_with_VillageID_VillageID": null, "Village_ID_Information_OID": null, "Village_ID_Information_COUNTY": null, "Village_ID_Information_VILLAGE_ID": null, "Village_ID_Information_PINGYING": null }, "geometry": { "type": "Point", "coordinates": [ 119.0105, 25.4584 ] } },
{ "type": "Feature", "properties": { "OBJECTID": 189, "VILLAGEID": 900076, "NAME": "Gong dou", "HANZI": "宫兜", "TOWNSHIP": "Chengjiao", "All_Villages_adjusted_with_VillageID_VillageID": null, "Village_ID_Information_OID": null, "Village_ID_Information_COUNTY": null, "Village_ID_Information_VILLAGE_ID": null, "Village_ID_Information_PINGYING": null }, "geometry": { "type": "Point", "coordinates": [ 119.0378, 25.4589 ] } },
{ "type": "Feature", "properties": { "OBJECTID": 190, "VILLAGEID": 900020, "NAME": "Gou tou", "HANZI": "沟头", "TOWNSHIP": "Chengjiao", "All_Villages_adjusted_with_VillageID_VillageID": null, "Village_ID_Information_OID": null, "Village_ID_Information_COUNTY": null, "Village_ID_Information_VILLAGE_ID": null, "Village_ID_Information_PINGYING": null }, "geometry": { "type": "Point", "coordinates": [ 118.9991, 25.4224 ] } },
{ "type": "Feature", "properties": { "OBJECTID": 191, "VILLAGEID": 900061, "NAME": "Jiao xi", "HANZI": "郊西", "TOWNSHIP": "Chengjiao", "All_Villages_adjusted_with_VillageID_VillageID": null, "Village_ID_Information_OID": null, "Village_ID_Information_COUNTY": null, "Village_ID_Information_VILLAGE_ID": null, "Village_ID_Information_PINGYING": null }, "geometry": { "type": "Point", "coordinates": [ 119.0329, 25.4335 ] } },
{ "type": "Feature", "properties": { "OBJECTID": 192, "VILLAGEID": 900029, "NAME": "Gu shan", "HANZI": "古山", "TOWNSHIP": "Chengjiao", "All_Villages_adjusted_with_VillageID_VillageID": null, "Village_ID_Information_OID": null, "Village_ID_Information_COUNTY": null, "Village_ID_Information_VILLAGE_ID": null, "Village_ID_Information_PINGYING": null }, "geometry": { "type": "Point", "coordinates": [ 119.034, 25.4283 ] } },
{ "type": "Feature", "properties": { "OBJECTID": 193, "VILLAGEID": 900046, "NAME": "Hao pu", "HANZI": "濠浦", "TOWNSHIP": "Chengjiao", "All_Villages_adjusted_with_VillageID_VillageID": null, "Village_ID_Information_OID": null, "Village_ID_Information_COUNTY": null, "Village_ID_Information_VILLAGE_ID": null, "Village_ID_Information_PINGYING": null }, "geometry": { "type": "Point", "coordinates": [ 119.0499, 25.4438 ] } },
{ "type": "Feature", "properties": { "OBJECTID": 194, "VILLAGEID": 900044, "NAME": "He she", "HANZI": "何社", "TOWNSHIP": "Chengjiao", "All_Villages_adjusted_with_VillageID_VillageID": null, "Village_ID_Information_OID": null, "Village_ID_Information_COUNTY": null, "Village_ID_Information_VILLAGE_ID": null, "Village_ID_Information_PINGYING": null }, "geometry": { "type": "Point", "coordinates": [ 119.0432, 25.443 ] } },
{ "type": "Feature", "properties": { "OBJECTID": 195, "VILLAGEID": 900054, "NAME": "Hou bu dun", "HANZI": "后布墩", "TOWNSHIP": "Chengjiao", "All_Villages_adjusted_with_VillageID_VillageID": null, "Village_ID_Information_OID": null, "Village_ID_Information_COUNTY": null, "Village_ID_Information_VILLAGE_ID": null, "Village_ID_Information_PINGYING": null }, "geometry": { "type": "Point", "coordinates": [ 119.0471, 25.4227 ] } },
{ "type": "Feature", "properties": { "OBJECTID": 196, "VILLAGEID": 900035, "NAME": "Hou gong", "HANZI": "后龚", "TOWNSHIP": "Chengjiao", "All_Villages_adjusted_with_VillageID_VillageID": null, "Village_ID_Information_OID": null, "Village_ID_Information_COUNTY": null, "Village_ID_Information_VILLAGE_ID": null, "Village_ID_Information_PINGYING": null }, "geometry": { "type": "Point", "coordinates": [ 119.0356, 25.432 ] } },
{ "type": "Feature", "properties": { "OBJECTID": 197, "VILLAGEID": 900510, "NAME": "Hou ting", "HANZI": "后亭", "TOWNSHIP": "Chengjiao", "All_Villages_adjusted_with_VillageID_VillageID": null, "Village_ID_Information_OID": null, "Village_ID_Information_COUNTY": null, "Village_ID_Information_VILLAGE_ID": null, "Village_ID_Information_PINGYING": null }, "geometry": { "type": "Point", "coordinates": [ 119.0568, 25.4317 ] } },
{ "type": "Feature", "properties": { "OBJECTID": 198, "VILLAGEID": 900121, "NAME": "Huang cuo", "HANZI": "黄厝", "TOWNSHIP": "Chengjiao", "All_Villages_adjusted_with_VillageID_VillageID": null, "Village_ID_Information_OID": null, "Village_ID_Information_COUNTY": null, "Village_ID_Information_VILLAGE_ID": null, "Village_ID_Information_PINGYING": null }, "geometry": { "type": "Point", "coordinates": [ 119.0191, 25.4174 ] } },
{ "type": "Feature", "properties": { "OBJECTID": 199, "VILLAGEID": 900040, "NAME": "Huang dun", "HANZI": "黄墩", "TOWNSHIP": "Chengjiao", "All_Villages_adjusted_with_VillageID_VillageID": null, "Village_ID_Information_OID": null, "Village_ID_Information_COUNTY": null, "Village_ID_Information_VILLAGE_ID": null, "Village_ID_Information_PINGYING": null }, "geometry": { "type": "Point", "coordinates": [ 119.0476, 25.4368 ] } },
{ "type": "Feature", "properties": { "OBJECTID": 200, "VILLAGEID": 900511, "NAME": "Huang gou bian", "HANZI": "黄沟边", "TOWNSHIP": "Chengjiao", "All_Villages_adjusted_with_VillageID_VillageID": null, "Village_ID_Information_OID": null, "Village_ID_Information_COUNTY": null, "Village_ID_Information_VILLAGE_ID": null, "Village_ID_Information_PINGYING": null }, "geometry": { "type": "Point", "coordinates": [ 119.0496, 25.4308 ] } },
{ "type": "Feature", "properties": { "OBJECTID": 201, "VILLAGEID": 900013, "NAME": "Huang tou", "HANZI": "黄头", "TOWNSHIP": "Chengjiao", "All_Villages_adjusted_with_VillageID_VillageID": null, "Village_ID_Information_OID": null, "Village_ID_Information_COUNTY": null, "Village_ID_Information_VILLAGE_ID": null, "Village_ID_Information_PINGYING": null }, "geometry": { "type": "Point", "coordinates": [ 118.9931, 25.4116 ] } },
{ "type": "Feature", "properties": { "OBJECTID": 202, "VILLAGEID": 900056, "NAME": "Jiang bian", "HANZI": "江边", "TOWNSHIP": "Chengjiao", "All_Villages_adjusted_with_VillageID_VillageID": null, "Village_ID_Information_OID": null, "Village_ID_Information_COUNTY": null, "Village_ID_Information_VILLAGE_ID": null, "Village_ID_Information_PINGYING": null }, "geometry": { "type": "Point", "coordinates": [ 119.0593, 25.4221 ] } },
{ "type": "Feature", "properties": { "OBJECTID": 203, "VILLAGEID": 900081, "NAME": "Jiao bei", "HANZI": "郊北", "TOWNSHIP": "Chengjiao", "All_Villages_adjusted_with_VillageID_VillageID": null, "Village_ID_Information_OID": null, "Village_ID_Information_COUNTY": null, "Village_ID_Information_VILLAGE_ID": null, "Village_ID_Information_PINGYING": null }, "geometry": { "type": "Point", "coordinates": [ 119.0304, 25.4592 ] } },
{ "type": "Feature", "properties": { "OBJECTID": 204, "VILLAGEID": 900063, "NAME": "Gou mei", "HANZI": "沟美", "TOWNSHIP": "Chengjiao", "All_Villages_adjusted_with_VillageID_VillageID": null, "Village_ID_Information_OID": null, "Village_ID_Information_COUNTY": null, "Village_ID_Information_VILLAGE_ID": null, "Village_ID_Information_PINGYING": null }, "geometry": { "type": "Point", "coordinates": [ 119.0663, 25.4398 ] } },
{ "type": "Feature", "properties": { "OBJECTID": 205, "VILLAGEID": 900080, "NAME": "Jiao nan", "HANZI": "郊南", "TOWNSHIP": "Chengjiao", "All_Villages_adjusted_with_VillageID_VillageID": null, "Village_ID_Information_OID": null, "Village_ID_Information_COUNTY": null, "Village_ID_Information_VILLAGE_ID": null, "Village_ID_Information_PINGYING": null }, "geometry": { "type": "Point", "coordinates": [ 119.0322, 25.4585 ] } },
{ "type": "Feature", "properties": { "OBJECTID": 206, "VILLAGEID": 900047, "NAME": "Jiao xia li", "HANZI": "郊下里", "TOWNSHIP": "Chengjiao", "All_Villages_adjusted_with_VillageID_VillageID": null, "Village_ID_Information_OID": null, "Village_ID_Information_COUNTY": null, "Village_ID_Information_VILLAGE_ID": null, "Village_ID_Information_PINGYING": null }, "geometry": { "type": "Point", "coordinates": [ 119.0493, 25.4459 ] } },
{ "type": "Feature", "properties": { "OBJECTID": 207, "VILLAGEID": 900106, "NAME": "Kong li", "HANZI": "孔里", "TOWNSHIP": "Chengjiao", "All_Villages_adjusted_with_VillageID_VillageID": null, "Village_ID_Information_OID": null, "Village_ID_Information_COUNTY": null, "Village_ID_Information_VILLAGE_ID": null, "Village_ID_Information_PINGYING": null }, "geometry": { "type": "Point", "coordinates": [ 119.0032, 25.4749 ] } },
{ "type": "Feature", "properties": { "OBJECTID": 208, "VILLAGEID": 900028, "NAME": "Kuo kou", "HANZI": "阔口", "TOWNSHIP": "Chengjiao", "All_Villages_adjusted_with_VillageID_VillageID": null, "Village_ID_Information_OID": null, "Village_ID_Information_COUNTY": null, "Village_ID_Information_VILLAGE_ID": null, "Village_ID_Information_PINGYING": null }, "geometry": { "type": "Point", "coordinates": [ 119.0258, 25.4244 ] } },
{ "type": "Feature", "properties": { "OBJECTID": 209, "VILLAGEID": 900109, "NAME": "Lao ye shu", "HANZI": "老叶树", "TOWNSHIP": "Chengjiao", "All_Villages_adjusted_with_VillageID_VillageID": null, "Village_ID_Information_OID": null, "Village_ID_Information_COUNTY": null, "Village_ID_Information_VILLAGE_ID": null, "Village_ID_Information_PINGYING": null }, "geometry": { "type": "Point", "coordinates": [ 118.9985, 25.4729 ] } },
{ "type": "Feature", "properties": { "OBJECTID": 210, "VILLAGEID": 900034, "NAME": "Li pu", "HANZI": "荔浦", "TOWNSHIP": "Chengjiao", "All_Villages_adjusted_with_VillageID_VillageID": null, "Village_ID_Information_OID": null, "Village_ID_Information_COUNTY": null, "Village_ID_Information_VILLAGE_ID": null, "Village_ID_Information_PINGYING": null }, "geometry": { "type": "Point", "coordinates": [ 119.0369, 25.4323 ] } },
{ "type": "Feature", "properties": { "OBJECTID": 211, "VILLAGEID": 900133, "NAME": "Lian tang", "HANZI": "莲塘", "TOWNSHIP": "Chengjiao", "All_Villages_adjusted_with_VillageID_VillageID": null, "Village_ID_Information_OID": null, "Village_ID_Information_COUNTY": null, "Village_ID_Information_VILLAGE_ID": null, "Village_ID_Information_PINGYING": null }, "geometry": { "type": "Point", "coordinates": [ 119.0194, 25.4294 ] } },
{ "type": "Feature", "properties": { "OBJECTID": 212, "VILLAGEID": 900006, "NAME": "Lin qiao", "HANZI": "林桥", "TOWNSHIP": "Chengjiao", "All_Villages_adjusted_with_VillageID_VillageID": null, "Village_ID_Information_OID": null, "Village_ID_Information_COUNTY": null, "Village_ID_Information_VILLAGE_ID": null, "Village_ID_Information_PINGYING": null }, "geometry": { "type": "Point", "coordinates": [ 118.9707, 25.4414 ] } },
{ "type": "Feature", "properties": { "OBJECTID": 213, "VILLAGEID": 900007, "NAME": "Lin zhen", "HANZI": "林圳", "TOWNSHIP": "Chengjiao", "All_Villages_adjusted_with_VillageID_VillageID": null, "Village_ID_Information_OID": null, "Village_ID_Information_COUNTY": null, "Village_ID_Information_VILLAGE_ID": null, "Village_ID_Information_PINGYING": null }, "geometry": { "type": "Point", "coordinates": [ 118.9706, 25.4469 ] } },
{ "type": "Feature", "properties": { "OBJECTID": 214, "VILLAGEID": 900118, "NAME": "Liu qiao", "HANZI": "柳桥", "TOWNSHIP": "Chengjiao", "All_Villages_adjusted_with_VillageID_VillageID": null, "Village_ID_Information_OID": null, "Village_ID_Information_COUNTY": null, "Village_ID_Information_VILLAGE_ID": null, "Village_ID_Information_PINGYING": null }, "geometry": { "type": "Point", "coordinates": [ 119.0129, 25.4256 ] } },
{ "type": "Feature", "properties": { "OBJECTID": 215, "VILLAGEID": 900513, "NAME": "Xiang li", "HANZI": "衖里", "TOWNSHIP": "Chengjiao", "All_Villages_adjusted_with_VillageID_VillageID": null, "Village_ID_Information_OID": null, "Village_ID_Information_COUNTY": null, "Village_ID_Information_VILLAGE_ID": null, "Village_ID_Information_PINGYING": null }, "geometry": { "type": "Point", "coordinates": [ 119.0369, 25.4567 ] } },
{ "type": "Feature", "properties": { "OBJECTID": 216, "VILLAGEID": 900514, "NAME": "Ma keng", "HANZI": "马坑", "TOWNSHIP": "Chengjiao", "All_Villages_adjusted_with_VillageID_VillageID": null, "Village_ID_Information_OID": null, "Village_ID_Information_COUNTY": null, "Village_ID_Information_VILLAGE_ID": null, "Village_ID_Information_PINGYING": null }, "geometry": { "type": "Point", "coordinates": [ 119.0246, 25.4629 ] } },
{ "type": "Feature", "properties": { "OBJECTID": 217, "VILLAGEID": 900131, "NAME": "Mei hua ting", "HANZI": "梅花亭", "TOWNSHIP": "Chengjiao", "All_Villages_adjusted_with_VillageID_VillageID": null, "Village_ID_Information_OID": null, "Village_ID_Information_COUNTY": null, "Village_ID_Information_VILLAGE_ID": null, "Village_ID_Information_PINGYING": null }, "geometry": { "type": "Point", "coordinates": [ 119.0198, 25.4305 ] } },
{ "type": "Feature", "properties": { "OBJECTID": 218, "VILLAGEID": 900515, "NAME": "Nan men", "HANZI": "南门", "TOWNSHIP": "Chengjiao", "All_Villages_adjusted_with_VillageID_VillageID": null, "Village_ID_Information_OID": null, "Village_ID_Information_COUNTY": null, "Village_ID_Information_VILLAGE_ID": null, "Village_ID_Information_PINGYING": null }, "geometry": { "type": "Point", "coordinates": [ 119.0055, 25.4309 ] } },
{ "type": "Feature", "properties": { "OBJECTID": 219, "VILLAGEID": 900516, "NAME": "Ou xu wei", "HANZI": "欧徐尾", "TOWNSHIP": "Chengjiao", "All_Villages_adjusted_with_VillageID_VillageID": null, "Village_ID_Information_OID": null, "Village_ID_Information_COUNTY": null, "Village_ID_Information_VILLAGE_ID": null, "Village_ID_Information_PINGYING": null }, "geometry": { "type": "Point", "coordinates": [ 119.0231, 25.4653 ] } },
{ "type": "Feature", "properties": { "OBJECTID": 220, "VILLAGEID": 900011, "NAME": "Bei tou", "HANZI": "陂头", "TOWNSHIP": "Chengjiao", "All_Villages_adjusted_with_VillageID_VillageID": null, "Village_ID_Information_OID": null, "Village_ID_Information_COUNTY": null, "Village_ID_Information_VILLAGE_ID": null, "Village_ID_Information_PINGYING": null }, "geometry": { "type": "Point", "coordinates": [ 118.9809, 25.408 ] } },
{ "type": "Feature", "properties": { "OBJECTID": 221, "VILLAGEID": 900073, "NAME": "Pao hu dun", "HANZI": "袍笏墩", "TOWNSHIP": "Chengjiao", "All_Villages_adjusted_with_VillageID_VillageID": null, "Village_ID_Information_OID": null, "Village_ID_Information_COUNTY": null, "Village_ID_Information_VILLAGE_ID": null, "Village_ID_Information_PINGYING": null }, "geometry": { "type": "Point", "coordinates": [ 119.0507, 25.4635 ] } },
{ "type": "Feature", "properties": { "OBJECTID": 222, "VILLAGEID": 900517, "NAME": "Pu li", "HANZI": "埔里", "TOWNSHIP": "Chengjiao", "All_Villages_adjusted_with_VillageID_VillageID": null, "Village_ID_Information_OID": null, "Village_ID_Information_COUNTY": null, "Village_ID_Information_VILLAGE_ID": null, "Village_ID_Information_PINGYING": null }, "geometry": { "type": "Point", "coordinates": [ 119.0026, 25.4532 ] } },
{ "type": "Feature", "properties": { "OBJECTID": 223, "VILLAGEID": 900032, "NAME": "Pu nan", "HANZI": "浦南", "TOWNSHIP": "Chengjiao", "All_Villages_adjusted_with_VillageID_VillageID": null, "Village_ID_Information_OID": null, "Village_ID_Information_COUNTY": null, "Village_ID_Information_VILLAGE_ID": null, "Village_ID_Information_PINGYING": null }, "geometry": { "type": "Point", "coordinates": [ 119.0422, 25.4296 ] } },
{ "type": "Feature", "properties": { "OBJECTID": 224, "VILLAGEID": 900518, "NAME": "Pu zi", "HANZI": "莆仔", "TOWNSHIP": "Chengjiao", "All_Villages_adjusted_with_VillageID_VillageID": null, "Village_ID_Information_OID": null, "Village_ID_Information_COUNTY": null, "Village_ID_Information_VILLAGE_ID": null, "Village_ID_Information_PINGYING": null }, "geometry": { "type": "Point", "coordinates": [ 118.99, 25.407 ] } },
{ "type": "Feature", "properties": { "OBJECTID": 225, "VILLAGEID": 900067, "NAME": "Qi bu", "HANZI": "七步", "TOWNSHIP": "Chengjiao", "All_Villages_adjusted_with_VillageID_VillageID": null, "Village_ID_Information_OID": null, "Village_ID_Information_COUNTY": null, "Village_ID_Information_VILLAGE_ID": null, "Village_ID_Information_PINGYING": null }, "geometry": { "type": "Point", "coordinates": [ 119.0533, 25.4584 ] } },
{ "type": "Feature", "properties": { "OBJECTID": 226, "VILLAGEID": 900519, "NAME": "Qi gong", "HANZI": "七公", "TOWNSHIP": "Chengjiao", "All_Villages_adjusted_with_VillageID_VillageID": null, "Village_ID_Information_OID": null, "Village_ID_Information_COUNTY": null, "Village_ID_Information_VILLAGE_ID": null, "Village_ID_Information_PINGYING": null }, "geometry": { "type": "Point", "coordinates": [ 119.0443, 25.4576 ] } },
{ "type": "Feature", "properties": { "OBJECTID": 227, "VILLAGEID": 900053, "NAME": "Qian bu dun", "HANZI": "前布墩", "TOWNSHIP": "Chengjiao", "All_Villages_adjusted_with_VillageID_VillageID": null, "Village_ID_Information_OID": null, "Village_ID_Information_COUNTY": null, "Village_ID_Information_VILLAGE_ID": null, "Village_ID_Information_PINGYING": null }, "geometry": { "type": "Point", "coordinates": [ 119.0462, 25.4204 ] } },
{ "type": "Feature", "properties": { "OBJECTID": 228, "VILLAGEID": 900050, "NAME": "Qian dun", "HANZI": "前墩", "TOWNSHIP": "Chengjiao", "All_Villages_adjusted_with_VillageID_VillageID": null, "Village_ID_Information_OID": null, "Village_ID_Information_COUNTY": null, "Village_ID_Information_VILLAGE_ID": null, "Village_ID_Information_PINGYING": null }, "geometry": { "type": "Point", "coordinates": [ 119.0518, 25.4155 ] } },
{ "type": "Feature", "properties": { "OBJECTID": 229, "VILLAGEID": 900008, "NAME": "Qiao wei", "HANZI": "桥尾", "TOWNSHIP": "Chengjiao", "All_Villages_adjusted_with_VillageID_VillageID": null, "Village_ID_Information_OID": null, "Village_ID_Information_COUNTY": null, "Village_ID_Information_VILLAGE_ID": null, "Village_ID_Information_PINGYING": null }, "geometry": { "type": "Point", "coordinates": [ 118.9794, 25.4471 ] } },
{ "type": "Feature", "properties": { "OBJECTID": 230, "VILLAGEID": 900027, "NAME": "San she", "HANZI": "三社", "TOWNSHIP": "Chengjiao", "All_Villages_adjusted_with_VillageID_VillageID": null, "Village_ID_Information_OID": null, "Village_ID_Information_COUNTY": null, "Village_ID_Information_VILLAGE_ID": null, "Village_ID_Information_PINGYING": null }, "geometry": { "type": "Point", "coordinates": [ 119.0288, 25.415 ] } },
{ "type": "Feature", "properties": { "OBJECTID": 231, "VILLAGEID": 900107, "NAME": "Shan dou", "HANZI": "山兜", "TOWNSHIP": "Chengjiao", "All_Villages_adjusted_with_VillageID_VillageID": null, "Village_ID_Information_OID": null, "Village_ID_Information_COUNTY": null, "Village_ID_Information_VILLAGE_ID": null, "Village_ID_Information_PINGYING": null }, "geometry": { "type": "Point", "coordinates": [ 119.0131, 25.4842 ] } },
{ "type": "Feature", "properties": { "OBJECTID": 232, "VILLAGEID": 900123, "NAME": "Shang dai wei", "HANZI": "上埭尾", "TOWNSHIP": "Chengjiao", "All_Villages_adjusted_with_VillageID_VillageID": null, "Village_ID_Information_OID": null, "Village_ID_Information_COUNTY": null, "Village_ID_Information_VILLAGE_ID": null, "Village_ID_Information_PINGYING": null }, "geometry": { "type": "Point", "coordinates": [ 119.0251, 25.4123 ] } },
{ "type": "Feature", "properties": { "OBJECTID": 233, "VILLAGEID": 900105, "NAME": "Shang dun", "HANZI": "上墩", "TOWNSHIP": "Chengjiao", "All_Villages_adjusted_with_VillageID_VillageID": null, "Village_ID_Information_OID": null, "Village_ID_Information_COUNTY": null, "Village_ID_Information_VILLAGE_ID": null, "Village_ID_Information_PINGYING": null }, "geometry": { "type": "Point", "coordinates": [ 119.0122, 25.4756 ] } },
{ "type": "Feature", "properties": { "OBJECTID": 234, "VILLAGEID": 900087, "NAME": "Shang lin", "HANZI": "上林", "TOWNSHIP": "Chengjiao", "All_Villages_adjusted_with_VillageID_VillageID": null, "Village_ID_Information_OID": null, "Village_ID_Information_COUNTY": null, "Village_ID_Information_VILLAGE_ID": null, "Village_ID_Information_PINGYING": null }, "geometry": { "type": "Point", "coordinates": [ 119.0208, 25.4608 ] } },
{ "type": "Feature", "properties": { "OBJECTID": 235, "VILLAGEID": 900069, "NAME": "Shang lin dun", "HANZI": "上林墩", "TOWNSHIP": "Chengjiao", "All_Villages_adjusted_with_VillageID_VillageID": null, "Village_ID_Information_OID": null, "Village_ID_Information_COUNTY": null, "Village_ID_Information_VILLAGE_ID": null, "Village_ID_Information_PINGYING": null }, "geometry": { "type": "Point", "coordinates": [ 119.0527, 25.4606 ] } },